arrival_info,stop_number,stop_name,stop_id,latitude,longitude
進站中,1,捷運淡水站,2514702320,25.167454,121.4465406
7分鐘,2,鄧公里,2514200000,25.169193,121.4480999
9分鐘,3,淡江柏園,2514300120,25.169986,121.450727
10分鐘,4,文宏廣場,2514300000,25.171023,121.451395
11分鐘,5,學府路口,2516800520,25.171772,121.4503368
12分鐘,6,淡江大學城,2514501800,25.173253,121.450209
進站中,7,淡江大學,2516800340,25.174327,121.447573
