arrival_info,stop_number,stop_name,stop_id,latitude,longitude
尚未發車,1,陽明交大實驗大樓,1126600260,25.123178,121.514561
尚未發車,2,陽明交大行政大樓,1126600420,25.122271,121.514816
尚未發車,3,陽明交大校門口,1126600340,25.120393,121.513058
尚未發車,4,永明派出所,1126700060,25.11722,121.5163664
尚未發車,5,綜合市場(捷運石牌站),1126700760,25.115911,121.515502
