arrival_info,stop_number,stop_name,stop_id,latitude,longitude
13分鐘,1,捷運關渡站,1125701040,25.125124,121.467024
17分鐘,2,關渡,1125701300,25.124915,121.4655155
19分鐘,3,學園路口,1125701200,25.127192,121.4656716
19分鐘,4,北藝大校門口,1120100100,25.129567,121.4660176
20分鐘,5,北藝大藝文生態館,1120100400,25.131778,121.466216
21分鐘,6,臺北城市科技大學,1120200200,25.132855,121.468095
