arrival_info,stop_number,stop_name,stop_id,latitude,longitude
末班已過,1,八里國小,2494300340,25.149766,121.404001
末班已過,2,八里服務站,2494300140,25.14918,121.40302
末班已過,3,八里區農會,2494300240,25.148269,121.40112
末班已過,4,舊城里,2494302140,25.14758,121.39996
末班已過,5,八里,2494300040,25.146847,121.397998
末班已過,6,八里國中,2494700140,25.141453,121.399533
末班已過,7,八里國小,2494300340,25.149766,121.404001
