arrival_info,stop_number,stop_name,stop_id,latitude,longitude
42分鐘,1,捷運淡水站,2514702320,25.167454,121.4465406
46分鐘,2,頂好,2515700500,25.177725,121.443641
48分鐘,3,正德國中,2514800120,25.178286,121.447419
48分鐘,4,台電宿舍,2514800020,25.17875,121.449371
49分鐘,5,北投子,2524302020,25.184703,121.4742805
61分鐘,6,北新庄,2524302210,25.206308,121.503112
74分鐘,7,三芝國中,2524100320,25.258882,121.501081
