arrival_info,stop_number,stop_name,stop_id,latitude,longitude
今日未營運,1,金瓜石(黃金博物館),2245002140,25.108369,121.85587
今日未營運,2,隔頂,2245002660,25.11206,121.8480656
今日未營運,3,九份老街,2244801260,25.110328,121.846055
今日未營運,4,九份派出所,2244800160,25.109443,121.8425581
今日未營運,5,九號停車場一,2245300350,25.11104,121.82941
今日未營運,6,流籠腳,2245001560,25.109359,121.8263792
今日未營運,7,區民廣場,2244100160,25.107778,121.807937
今日未營運,8,瑞芳火車站,2244100460,25.108227,121.8058805
