arrival_info,stop_number,stop_name,stop_id,latitude,longitude
末班已過,1,冷水坑服務站,1119201540,25.165839,121.563844
末班已過,2,松園,1119201640,25.15836,121.565184
末班已過,3,菁山遊憩區一,1119203560,25.15165,121.56106
末班已過,4,菁山遊憩區,1119203160,25.151715,121.558374
末班已過,5,中山樓,1129100300,25.151372,121.549636
末班已過,6,陽明山,1129101760,25.152497,121.5474217
末班已過,7,陽明山總站,1129102120,25.15148,121.54603
