arrival_info,stop_number,stop_name,stop_id,latitude,longitude
6分鐘,1,捷運淡水站,2514702300,25.16841,121.44588
進站中,2,永樂巷口(中山市場),2515100060,25.170605,121.4430187
進站中,3,北淡水,2515700200,25.175635,121.44194
4分鐘,4,黃昏市場,2515002020,25.176727,121.445212
4分鐘,5,淡江大學,2516800320,25.176635,121.448174
