arrival_info,stop_number,stop_name,stop_id,latitude,longitude
4分鐘,1,淡江大學,2516800320,25.176635,121.448174
進站中,2,黃昏市場,2515002060,25.176826,121.4450254
3分鐘,3,北淡水,2517400241,25.175626,121.441793
進站中,4,永樂巷口(中山市場),2515100020,25.170424,121.4426182
進站中,5,華南銀行,2515100220,25.16938,121.444257
3分鐘,6,捷運淡水站,2514702321,25.167281,121.4467018
