arrival_info,stop_number,stop_name,stop_id,latitude,longitude
末班已過,1,石門區公所,2534200660,25.291451,121.567506
末班已過,2,崩山口,2534201340,25.291434,121.5528746
末班已過,3,老梅,2534200960,25.289253,121.5458915
末班已過,4,山溪集會所,2534200120,25.267751,121.561684
末班已過,5,大丘田,2534200020,25.282853,121.548026
末班已過,6,老梅,2534200920,25.289146,121.545697
末班已過,7,崩山口,2534201300,25.291123,121.5528062
末班已過,8,石門區公所,2534200660,25.291451,121.567506
