arrival_info,stop_number,stop_name,stop_id,latitude,longitude
71分鐘,1,行政院新莊聯合辦公大樓(榮華),2424800020,25.055579,121.4429294
83分鐘,2,捷運頭前庄站(思源路),2421500040,25.040005,121.459856
89分鐘,3,捷運新埔站,2204700230,25.024488,121.46687
94分鐘,4,台64線24.3Km(虛擬站不停靠),2359700240,24.998133,121.485116
預計18:20發車,5,捷運景安站(景平路),2357700220,24.993354,121.504297
預計18:20發車,6,台64線28.2Km(虛擬站不停靠),2359700120,24.990993,121.520684
預計18:20發車,7,捷運大坪林站,2314301200,24.983344,121.5413983
