arrival_info,stop_number,stop_name,stop_id,latitude,longitude
進站中,1,東園公園,1088500020,25.021365,121.495968
進站中,2,楊聖廟,1086700100,25.02281,121.49573
3分鐘,3,民和街口,1086700000,25.024252,121.4952326
3分鐘,4,寶興街,1086700260,25.025956,121.494436
6分鐘,5,西園路二段,1086400000,25.027153,121.4941737
6分鐘,6,華江高中(西園),1085900100,25.029584,121.4961628
7分鐘,7,西園29服飾基地,1085900000,25.03244,121.497718
進站中,8,大理服飾,1085500000,25.034147,121.498768
4分鐘,9,捷運龍山寺站,1085500320,25.035143,121.500164
