arrival_info,stop_number,stop_name,stop_id,latitude,longitude
4分鐘,1,松仁路,1104600200,25.02453,121.5695997
8分鐘,2,吳興國小(松仁),1104600000,25.026234,121.568628
9分鐘,3,信義國中(莊敬),1105000200,25.027607,121.56521
10分鐘,4,臺北醫學大學,1105000300,25.028241,121.5634888
11分鐘,5,景新里,1104900400,25.029526,121.5623852
12分鐘,6,世貿中心(莊敬),1104900100,25.031399,121.561326
18分鐘,7,吳興街口,1105200040,25.031594,121.5586001
20分鐘,8,三興國小(臨江街觀光夜市),1067700140,25.028215,121.556522
21分鐘,9,喬治商職,1067500340,25.02633,121.5546403
23分鐘,10,捷運六張犁站(基隆路),1067500240,25.023428,121.551345
進站中,11,和平高中,1105200140,25.02024,121.54763
3分鐘,12,基隆長興街口,1067200460,25.018512,121.5456371
4分鐘,13,臺大癌醫(基隆路),1067200760,25.015713,121.5422472
5分鐘,14,臺灣科技大學,1060700060,25.014151,121.540464
7分鐘,15,公館,1067300060,25.012108,121.5380694
11分鐘,16,捷運公館站,1009000160,25.015228,121.534086
13分鐘,17,台電大樓,1067300200,25.018486,121.530566
14分鐘,18,捷運台電大樓站,1064700300,25.02092,121.52803
16分鐘,19,羅斯福浦城街口,1064600300,25.022311,121.5265002
16分鐘,20,羅斯福金門街口,1008400300,25.024106,121.5246768
17分鐘,21,捷運古亭站(羅斯福),1008400200,25.02678,121.52269
19分鐘,22,捷運古亭站(杭州),1064200100,25.02886,121.5219375
24分鐘,23,南福板溪(南昌公園),1007800060,25.02681,121.52053
25分鐘,24,牯嶺街,1007800300,25.02814,121.51789
26分鐘,25,自來水西分處(牯嶺),1007600100,25.029865,121.5166342
進站中,26,牯嶺街小劇場,1007500200,25.03176,121.51518
4分鐘,27,建國中學(歷史博物館),1006600560,25.031565,121.512879
6分鐘,28,植物園,1007000260,25.03088,121.508711
7分鐘,29,和平中華路口,1006600360,25.033191,121.50578
11分鐘,30,昆明街口,1085100060,25.035341,121.5020082
進站中,31,捷運龍山寺站,1085200360,25.03538,121.49971
進站中,32,中國時報,1085500160,25.035454,121.4969752
進站中,33,華江派出所,1088300140,25.034006,121.493016
進站中,34,大理高中,1085800140,25.03162,121.490827
4分鐘,35,人壽一村,1085800060,25.032073,121.4895177
4分鐘,36,華江站,1085800360,25.032333,121.4889822
5分鐘,1,華江站,1037600320,25.032283,121.4889513
5分鐘,2,人壽一村,1085800020,25.031523,121.4902758
6分鐘,3,大理高中,1088300000,25.031919,121.491328
7分鐘,4,華江派出所,1088300100,25.034114,121.4933405
8分鐘,5,中國時報,1085500120,25.035221,121.496276
10分鐘,6,捷運龍山寺站,1085500320,25.035143,121.500164
11分鐘,7,昆明街口,1085100020,25.0351,121.5024902
14分鐘,8,和平中華路口,1006800120,25.032422,121.5062725
進站中,9,植物園,1007000220,25.030056,121.509834
3分鐘,10,建國中學,1006600420,25.029178,121.513095
5分鐘,11,自來水西分處(寧波),1007500020,25.029828,121.5157
7分鐘,12,聯合醫院婦幼院區一,1007500340,25.029987,121.5180375
8分鐘,13,南昌家具街,1008400140,25.027364,121.520315
進站中,14,羅斯福金門街口,1008400340,25.024288,121.5243501
進站中,15,羅斯福浦城街口,1064600340,25.022418,121.5260858
進站中,16,捷運台電大樓站,1008900420,25.020027,121.528697
3分鐘,17,台電大樓,1067300240,25.017546,121.531379
4分鐘,18,捷運公館站,1009000140,25.014321,121.534722
10分鐘,19,公館,1067300020,25.012096,121.5385308
11分鐘,20,臺灣科技大學,1060700020,25.013453,121.5401488
12分鐘,21,臺大癌醫(基隆路),1067200720,25.015521,121.5425256
13分鐘,22,基隆長興街口,1067200320,25.017425,121.5448494
16分鐘,23,和平高中,1105200100,25.01963,121.54746
19分鐘,24,捷運六張犁站(基隆路),1067500200,25.023636,121.5519069
20分鐘,25,喬治商職,1105400100,25.02628,121.5549231
3分鐘,26,三興國小(臨江街觀光夜市),1105300100,25.028574,121.557017
4分鐘,27,吳興街口,1105200000,25.031596,121.5588464
6分鐘,28,世貿中心(莊敬),1104900140,25.031446,121.56127
7分鐘,29,景新里,1104900440,25.02923,121.5624103
8分鐘,30,臺北醫學大學,1105000340,25.028273,121.5632643
10分鐘,31,信義國中(莊敬),1105000240,25.027402,121.565724
進站中,32,吳興國小(莊敬),1105000020,25.026725,121.568122
3分鐘,33,松仁路,1104600240,25.024432,121.569585
預計21:00發車,1,捷運台大醫院站,1004801100,25.041927,121.5163535
預計21:00發車,2,臺北車站(青島),1004100820,25.044844,121.517704
預計21:00發車,3,行政院,1004100500,25.046578,121.5202398
3分鐘,4,臺北車站(鄭州),1035100460,25.048809,121.5174713
6分鐘,5,後車站,1034900100,25.050269,121.5135627
7分鐘,6,圓環(重慶),1035000300,25.052844,121.514207
11分鐘,7,民生重慶路口,1035600000,25.056766,121.5138258
12分鐘,8,涼州重慶路口,1035800300,25.060669,121.5135455
13分鐘,9,捷運大橋頭站,1035900000,25.062704,121.513583
15分鐘,10,昌吉重慶路口,1036300200,25.065794,121.5137575
18分鐘,11,民族重慶路口,1036900020,25.068586,121.5143308
19分鐘,12,蘭州國中,1036400420,25.068512,121.5161869
20分鐘,13,民族承德路口,1036500001,25.069322,121.518574
21分鐘,14,庫倫街,1036700360,25.072013,121.5176838
23分鐘,15,大龍峒保安宮,1036700060,25.07209,121.515621
23分鐘,16,酒泉重慶路口,1037300160,25.072042,121.514591
24分鐘,17,酒泉街,1037300260,25.072185,121.5135209
27分鐘,18,老師里,1037300060,25.072183,121.511508
29分鐘,19,污水處理廠,1037200000,25.075572,121.5118974
30分鐘,20,社子消防分隊,1116500300,25.079411,121.5112234
31分鐘,21,海光新村,1116500400,25.080711,121.5107623
31分鐘,22,葫蘆堵市場,1116501000,25.083057,121.5102329
33分鐘,23,葫蘆寺(葫蘆里),1117300200,25.086022,121.5096458
35分鐘,24,社子市場,1117200100,25.087505,121.5090743
36分鐘,25,社園里,1117200600,25.089056,121.5079873
38分鐘,26,社子派出所,1117200360,25.089599,121.5064251
39分鐘,27,永倫里(南),1117200760,25.089467,121.503968
40分鐘,28,社子國小,1117200400,25.089904,121.5025776
40分鐘,29,永倫里(延平),1117500100,25.091148,121.500682
42分鐘,30,洲美橋,1117500500,25.092658,121.4992219
43分鐘,31,中窟,1117400300,25.09534,121.49649
44分鐘,32,福安里,1117200900,25.09636,121.49544
44分鐘,33,福安區民活動中心,1117201000,25.09717,121.49455
45分鐘,34,下竹圍,1117200000,25.0982,121.49333
46分鐘,35,地藏禪寺,1117400500,25.099749,121.4915352
46分鐘,36,臨江園,1117402000,25.10163,121.48928
47分鐘,37,福安國中,1117401900,25.10333,121.48729
48分鐘,38,富洲里八段,1117401600,25.10576,121.48446
48分鐘,39,富安國小,1117401360,25.10596,121.4833
49分鐘,40,建安新村,1117400960,25.10601,121.48116
49分鐘,41,下溪沙尾,1117400160,25.10597,121.47884
50分鐘,42,威靈廟,1117400800,25.105957,121.4764835
50分鐘,43,富洲里九段,1117401500,25.106223,121.4742815
51分鐘,44,浮線,1117401100,25.106667,121.4725864
51分鐘,45,台北海大,1117400400,25.108525,121.4706761
52分鐘,46,富洲里,1117401460,25.109244,121.468346
25分鐘,1,富洲里,1117401420,25.109126,121.468652
25分鐘,2,台北海大,1117400440,25.108188,121.4708548
26分鐘,3,浮線,1117401140,25.106587,121.4725103
27分鐘,4,富洲里九段,1117401540,25.10614,121.47427
27分鐘,5,威靈廟,1117400840,25.105857,121.4762383
28分鐘,6,下溪沙尾,1117400120,25.10581,121.47886
28分鐘,7,建安新村,1117400920,25.105952,121.4812673
29分鐘,8,富安國小,1117401320,25.105912,121.4831859
29分鐘,9,富洲里八段,1117401640,25.10563,121.48448
30分鐘,10,福安國中,1117401940,25.103238,121.4872193
30分鐘,11,臨江園,1117402040,25.1017,121.48915
31分鐘,12,地藏禪寺,1117400540,25.09956,121.49168
32分鐘,13,下竹圍,1117200040,25.09816,121.49333
32分鐘,14,福安區民活動中心,1117201040,25.09707,121.49461
33分鐘,15,福安里,1117200940,25.09612,121.49561
33分鐘,16,普濟堂,1117200840,25.094151,121.4974417
36分鐘,17,社子國小二,1117200540,25.090017,121.5020824
39分鐘,18,社子國小,1117200440,25.089646,121.5028759
39分鐘,19,永倫里(南),1117200720,25.089298,121.504244
40分鐘,20,社子派出所,1117200320,25.089332,121.5056145
41分鐘,21,社子市場二,1117200240,25.088796,121.5081045
42分鐘,22,社子市場,1117200140,25.088046,121.5087166
44分鐘,23,葫蘆寺(葫蘆里),1117100340,25.085288,121.5095885
46分鐘,24,葫蘆堵市場,1116501040,25.083075,121.5100276
47分鐘,25,海光新村,1117100240,25.081321,121.5103891
47分鐘,26,社子消防分隊,1116500340,25.079521,121.5109944
48分鐘,27,污水處理廠,1037200040,25.07605,121.5118
49分鐘,28,老師里,1037300020,25.072056,121.5115542
51分鐘,29,酒泉街,1037300220,25.072041,121.5133789
53分鐘,30,民族重慶路口,1036900040,25.068879,121.51371
54分鐘,31,昌吉重慶路口,1036300240,25.06615,121.5136438
55分鐘,32,捷運大橋頭站,1035900040,25.063324,121.5135163
進站中,33,涼州重慶路口,1035800340,25.06098,121.5135093
進站中,34,民生重慶路口,1035800140,25.05715,121.5136927
3分鐘,35,朝陽公園(鈕釦街),1034500042,25.055504,121.514022
5分鐘,36,圓環(南京),1035000220,25.053651,121.5157054
9分鐘,37,臺北車站(承德),1034900240,25.050735,121.5167729
10分鐘,38,臺北車站(鄭州),1035100420,25.048497,121.5171976
12分鐘,39,行政院,1004100540,25.046484,121.5197596
13分鐘,40,臺大醫院,1005500340,25.042497,121.5185042
15分鐘,1,捷運行天宮站(松江路),1046800240,25.060535,121.5331063
17分鐘,2,長春松江路口,1048500040,25.055006,121.533011
21分鐘,3,南京吉林路口,1045700260,25.052112,121.5303325
22分鐘,4,南京林森路口,1045400160,25.052167,121.5257174
25分鐘,5,中山市場,1044400040,25.051264,121.5220211
進站中,6,行政院,1004100540,25.046484,121.5197596
7分鐘,7,臺北車站(公園),1004700340,25.043929,121.516775
9分鐘,8,捷運台大醫院站,1004600040,25.041935,121.5161481
11分鐘,9,一女中(公園),1004800040,25.038007,121.5149627
12分鐘,10,市立大學附小,1004800540,25.036462,121.5149763
進站中,11,南門,1006600640,25.033565,121.515375
7分鐘,12,寧波重慶路口,1007600240,25.028886,121.5153917
8分鐘,13,重慶南路三段(中正橋),1007100040,25.024804,121.516528
12分鐘,14,捷運頂溪站,2344300940,25.01443,121.5155769
14分鐘,15,中興街口,2344400140,25.011595,121.5147464
16分鐘,16,樂華夜市,2344500840,25.00839,121.51386
18分鐘,17,永和路口,2344500440,25.005687,121.5128613
進站中,18,永安市場(永貞路),2357400140,25.003661,121.513414
4分鐘,19,中安街,2357400040,25.002081,121.512357
4分鐘,20,安平派出所,2357400740,25.000769,121.511211
7分鐘,21,安平路,2357600140,24.997722,121.511791
7分鐘,22,宜安路,2357600260,24.997295,121.5112044
8分鐘,23,華泰新城(宜安路),2357600560,24.998949,121.509048
9分鐘,24,雙和里,2357500760,24.99973,121.5068521
10分鐘,25,南山高中,2357500660,24.999775,121.505547
11分鐘,26,中和派出所,2357500060,24.999855,121.5028195
12分鐘,27,中和廟口,2357500260,25.000814,121.5009077
13分鐘,28,中和農會(中和路),2357500100,25.001862,121.499868
16分鐘,29,一江新村,2355800060,25.002636,121.498247
17分鐘,30,捷運中和站(中山路),2355701060,25.002436,121.496157
18分鐘,31,家美工業區,2355700760,25.00229,121.493465
20分鐘,32,中和保養廠,2355700360,25.003079,121.491807
尚未發車,1,中和保養廠,2355800420,25.002543,121.492374
尚未發車,2,家美工業區,2355700720,25.002035,121.493889
尚未發車,3,捷運中和站(中山路),2355701020,25.002211,121.495441
尚未發車,4,一江新村,2355800020,25.002407,121.498123
尚未發車,5,中和農會(中和路),2357500140,25.001903,121.499736
尚未發車,6,中和廟口,2357500220,25.000553,121.500968
尚未發車,7,中和派出所,2357500020,24.999695,121.5027697
尚未發車,8,南山高中,2357500620,24.999655,121.5048263
尚未發車,9,雙和里,2357500720,24.999571,121.50739
尚未發車,10,華泰新城(宜安路),2357600520,24.998841,121.508875
尚未發車,11,宜安路,2357600220,24.997389,121.5109042
尚未發車,12,安平路,2357200000,24.99767,121.51196
尚未發車,13,潭墘,2357200300,24.99948,121.51347
尚未發車,14,823紀念公園,2358200970,25.001909,121.5151052
尚未發車,15,永安市場,2345500500,25.00506,121.51445
尚未發車,16,自強街口,2344700300,25.007558,121.514584
進站中,17,樂華夜市,2344500800,25.008563,121.5141176
3分鐘,18,捷運頂溪站,2344500600,25.01258,121.515273
6分鐘,19,中正橋頭,2344500100,25.016042,121.5162239
8分鐘,20,重慶南路三段(中正橋),1007700000,25.024254,121.5168988
10分鐘,21,福州街,1007800500,25.028027,121.517445
11分鐘,22,自來水西分處(牯嶺),1007600100,25.029865,121.5166342
13分鐘,23,南昌路,1007500101,25.031219,121.517248
15分鐘,24,南門,1007400100,25.033381,121.51568
16分鐘,25,一女中(公園),1004800000,25.036828,121.5151365
進站中,26,捷運台大醫院站,1004801100,25.041927,121.5163535
進站中,27,臺北車站(青島),1004100820,25.044844,121.517704
7分鐘,28,行政院,1004100500,25.046578,121.5202398
10分鐘,29,中山市場,1044400000,25.050519,121.522081
14分鐘,30,南京林森路口,1045400120,25.052069,121.5250604
15分鐘,31,南京吉林路口,1045700220,25.052007,121.529855
16分鐘,32,捷運松江南京站,1045700420,25.051969,121.5327305
19分鐘,33,長春松江路口,1045900300,25.054536,121.5331386
進站中,34,民生松江路口,1048300320,25.057791,121.535046
進站中,35,合江街口,1047800020,25.057724,121.5381394
4分鐘,36,臺北大學(臺北校區),1048000220,25.05774,121.54274
7分鐘,37,捷運中山國中站,1047600500,25.060855,121.544405
9分鐘,38,民權龍江路口,1047600460,25.062395,121.5412752
10分鐘,39,民權建國路口,1047700060,25.062483,121.53746
13分鐘,40,民權松江路口,1048300060,25.062524,121.5334388
10分鐘,1,祖師廟(康定),1084900400,25.039681,121.5019792
11分鐘,2,長沙街,1085000220,25.040609,121.5056466
13分鐘,3,捷運西門站,1084600300,25.04173,121.5082859
16分鐘,4,中華路北站,1004200200,25.045696,121.5093807
20分鐘,5,捷運北門站,1034100601,25.050609,121.5106101
21分鐘,6,南京西路口(塔城),1034300400,25.052852,121.5104624
23分鐘,7,南京西路口(鈕釦街),1034600200,25.054427,121.5117973
24分鐘,8,民生西路口(大稻埕碼頭),1034600000,25.057441,121.5116168
26分鐘,9,保安街口,1034800100,25.05984,121.5114724
27分鐘,10,涼州重慶路口,1035800320,25.060697,121.512933
29分鐘,11,捷運大橋頭站,1035900000,25.062704,121.513583
30分鐘,12,昌吉重慶路口,1036300200,25.065794,121.5137575
32分鐘,13,民族重慶路口,1036900020,25.068586,121.5143308
進站中,14,蘭州國中,1036400420,25.068512,121.5161869
進站中,15,民族承德路口,1036500001,25.069322,121.518574
4分鐘,16,庫倫街,1036700360,25.072013,121.5176838
6分鐘,17,大龍峒保安宮,1036700060,25.07209,121.515621
7分鐘,18,酒泉重慶路口,1037300160,25.072042,121.514591
8分鐘,19,酒泉街,1037300260,25.072185,121.5135209
8分鐘,20,老師里,1037300060,25.072183,121.511508
10分鐘,21,污水處理廠,1037200000,25.075572,121.5118974
11分鐘,22,社子消防分隊,1116500300,25.079411,121.5112234
12分鐘,23,海光新村,1116500400,25.080711,121.5107623
13分鐘,24,葫蘆堵市場,1116501000,25.083057,121.5102329
15分鐘,25,葫蘆寺(葫蘆里),1117300200,25.086022,121.5096458
17分鐘,26,社子市場,1117200100,25.087505,121.5090743
18分鐘,27,社園里,1117200600,25.089056,121.5079873
20分鐘,28,社子派出所,1117200360,25.089599,121.5064251
21分鐘,29,永倫里(南),1117200760,25.089467,121.503968
22分鐘,30,社子國小,1117200400,25.089904,121.5025776
尚未發車,1,社子國小,1117200440,25.089646,121.5028759
尚未發車,2,永倫里(南),1117200720,25.089298,121.504244
尚未發車,3,社子派出所,1117200320,25.089332,121.5056145
尚未發車,4,社子市場二,1117200240,25.088796,121.5081045
尚未發車,5,社子市場,1117200140,25.088046,121.5087166
尚未發車,6,葫蘆寺(葫蘆里),1117100340,25.085288,121.5095885
尚未發車,7,葫蘆堵市場,1116501040,25.083075,121.5100276
尚未發車,8,海光新村,1117100240,25.081321,121.5103891
尚未發車,9,社子消防分隊,1116500340,25.079521,121.5109944
尚未發車,10,污水處理廠,1037200040,25.07605,121.5118
尚未發車,11,老師里,1037300020,25.072056,121.5115542
尚未發車,12,酒泉街,1037300220,25.072041,121.5133789
尚未發車,13,民族重慶路口,1036900040,25.068879,121.51371
尚未發車,14,昌吉重慶路口,1036300240,25.06615,121.5136438
尚未發車,15,捷運大橋頭站,1035900040,25.063324,121.5135163
尚未發車,16,涼州重慶路口,1034800360,25.060795,121.513088
尚未發車,17,保安街口,1034600140,25.05983,121.5113241
尚未發車,18,民生西路口(大稻埕碼頭),1034400040,25.057928,121.5114003
尚未發車,19,南京西路口(鈕釦街),1034400140,25.054547,121.5116211
尚未發車,20,南京西路口(塔城),1034300440,25.05265,121.51031
進站中,21,聯合醫院中興院區(塔城),1034100640,25.051335,121.5103985
3分鐘,22,捷運北門站,1034100140,25.049002,121.510134
7分鐘,23,中華路北站,1084300041,25.044584,121.508765
進站中,24,捷運西門站,1084600340,25.041649,121.5078873
進站中,25,小南門,1085000340,25.038008,121.5068125
4分鐘,26,龍山國中,1084900640,25.035844,121.5038948
6分鐘,27,昆明街口,1085100060,25.035341,121.5020082
8分鐘,28,龍山寺(康定),1085200700,25.036314,121.501464
8分鐘,1,臺北車站(公園),1004700340,25.043929,121.516775
10分鐘,2,捷運台大醫院站,1004600040,25.041935,121.5161481
14分鐘,3,中正紀念堂,1004800920,25.037153,121.520771
15分鐘,4,信義杭州路口,1004800820,25.0357,121.5238361
進站中,5,捷運東門站,1064100120,25.034134,121.5269937
進站中,6,信義永康街口(捷運東門站),1065000320,25.033693,121.529727
進站中,7,信義新生路口,1006100020,25.03353,121.5323283
3分鐘,8,捷運大安森林公園站,1065600420,25.033496,121.5356316
5分鐘,9,信義建國路口,1065800120,25.033441,121.539045
6分鐘,10,捷運大安站(信義),1065800420,25.033323,121.5432319
8分鐘,11,信義大安路口,1068300220,25.0332,121.5456
8分鐘,12,信義敦化路口,1068100120,25.033262,121.548298
11分鐘,13,仁愛國中,1068900100,25.035951,121.5490897
12分鐘,14,安和敦化路口,1068900400,25.039761,121.5489579
進站中,15,捷運忠孝敦化站,1069000200,25.043012,121.549174
5分鐘,16,市民大道口,1055700000,25.045757,121.5491941
7分鐘,17,臺視,1055900020,25.04807,121.5511
10分鐘,18,美仁里,1055400120,25.048,121.55415
11分鐘,19,榮民服務處,1056000100,25.048703,121.557946
15分鐘,20,南京新村,1057900100,25.052989,121.556952
16分鐘,21,三軍總醫院松山分院,1058600020,25.05367,121.55726
17分鐘,22,長壽公園,1058600120,25.05381,121.55985
18分鐘,23,健康新城,1058600220,25.053978,121.5626621
19分鐘,24,三民健康路口(西松高中),1058200000,25.054814,121.5638473
22分鐘,25,三民路,1058200100,25.05753,121.56368
25分鐘,26,新東街口,1058900120,25.05902,121.5664423
26分鐘,27,民生國中,1059400200,25.060189,121.5676949
28分鐘,28,新益里,1059200100,25.062445,121.566269
32分鐘,29,民權大橋,1149400320,25.066876,121.5794778
33分鐘,30,時報廣場,1149401020,25.068084,121.5821211
36分鐘,31,三民國中,1146600020,25.068803,121.5854057
37分鐘,32,內湖行政大樓,1146600120,25.068934,121.5889192
40分鐘,33,國防醫學中心,1147200100,25.07121,121.5900311
42分鐘,34,三總內湖站,1149000200,25.071852,121.592095
44分鐘,35,將軍嶺,1147200200,25.073809,121.5900167
45分鐘,36,方濟中學,1146200000,25.076884,121.5902313
47分鐘,37,內湖高中,1147500060,25.079013,121.5883097
48分鐘,38,捷運文德站(碧湖公園),1147500260,25.078585,121.584249
49分鐘,39,湖光國宅,1147300060,25.07859,121.58078
51分鐘,40,西湖圖書館(湖光教會),1144700061,25.07889,121.578499
52分鐘,41,港墘派出所,1144800240,25.078636,121.57619
57分鐘,42,瑞光路,1149100230,25.074821,121.577343
60分鐘,43,公館山,1149100040,25.071988,121.5809507
60分鐘,44,麗寶大樓,1149100340,25.070391,121.582671
65分鐘,45,瑞湖街口,1149400261,25.067659,121.576798
16分鐘,1,瑞湖街口,1149400220,25.067523,121.576485
20分鐘,2,麗寶大樓,1149100300,25.070424,121.58271
21分鐘,3,公館山,1149100000,25.071952,121.581177
22分鐘,4,瑞光路,1147400070,25.074746,121.5776
25分鐘,5,內湖運動中心,1144800300,25.07724,121.5755879
25分鐘,6,港墘派出所,1144800100,25.0787,121.57642
26分鐘,7,西湖圖書館(湖光教會),1144700020,25.078723,121.5785305
27分鐘,8,湖光國宅,1147500320,25.078356,121.5815972
29分鐘,9,捷運文德站(碧湖公園),1147500220,25.078401,121.5841327
30分鐘,10,內湖高中,1147500020,25.078703,121.5875658
31分鐘,11,方濟中學,1146000140,25.076435,121.5900771
32分鐘,12,將軍嶺,1147200240,25.073372,121.58972
36分鐘,13,三總內湖站,1149000100,25.071852,121.592095
4分鐘,14,國防醫學中心,1147200140,25.071037,121.5898699
5分鐘,15,內湖行政大樓,1146600160,25.06916,121.58832
7分鐘,16,三民國中,1146600060,25.06901,121.58556
10分鐘,17,時報廣場,1149401060,25.06856,121.5831298
10分鐘,18,民權大橋,1149400360,25.06702,121.5791
15分鐘,19,新益里,1059200140,25.062286,121.566155
18分鐘,20,民生國中,1059100040,25.059661,121.5679233
20分鐘,21,新東街口,1058900160,25.059272,121.5663967
進站中,22,三民路,1058200140,25.0575,121.5634
3分鐘,23,三民健康路口(西松高中),1058200040,25.055245,121.5635808
7分鐘,24,健康新城,1058600260,25.054217,121.5621625
8分鐘,25,長壽公園,1058600160,25.054069,121.559764
8分鐘,26,三軍總醫院松山分院,1056400060,25.053881,121.5578743
10分鐘,27,南京新村,1057900140,25.052778,121.5568095
13分鐘,28,博仁醫院,1056000040,25.04937,121.55774
16分鐘,29,光復路口,1055400060,25.048151,121.5567576
17分鐘,30,美仁里,1055400160,25.04821,121.553906
20分鐘,31,臺視,1055900061,25.048248,121.551437
23分鐘,32,市民敦化路口,1055700240,25.045271,121.548797
24分鐘,33,忠孝敦化路口,1069000140,25.041865,121.5487541
26分鐘,34,仁愛敦化路口,1068500140,25.039043,121.548697
進站中,35,信義敦化路口,1068100141,25.034123,121.5485022
5分鐘,36,信義大安路口,1068400060,25.033383,121.5461666
5分鐘,37,捷運大安站(信義),1068400260,25.033404,121.5438266
6分鐘,38,師大附中,1065800360,25.033382,121.542275
8分鐘,39,信義建國路口,1065800160,25.033595,121.538468
9分鐘,40,捷運大安森林公園站,1065600460,25.03355,121.5359159
10分鐘,41,信義新生路口,1065600360,25.033627,121.5331327
12分鐘,42,信義永康街口,1065100260,25.033765,121.5301447
13分鐘,43,捷運東門站,1005700060,25.034232,121.526986
15分鐘,44,信義杭州路口,1004800860,25.035417,121.5246296
17分鐘,45,中正紀念堂,1004800960,25.03739,121.52056
21分鐘,46,捷運台大醫院站,1004801100,25.041927,121.5163535
進站中,47,博物館(館前),1004700200,25.044177,121.5150573
4分鐘,48,臺北車站(忠孝),1004100720,25.046563,121.5156894
12分鐘,1,信義永康街口(捷運東門站),1065000320,25.033693,121.529727
15分鐘,2,金華新生路口,1065000240,25.03087,121.53346
16分鐘,3,和平新生路口,1064400040,25.02639,121.53478
18分鐘,4,龍安國小(公務人力發展學院),1066000240,25.024664,121.5345198
19分鐘,5,臺大綜合體育館,1066000140,25.02155,121.5341136
20分鐘,6,臺大,1067300840,25.018239,121.533435
進站中,7,捷運公館站,1009000140,25.014321,121.534722
進站中,8,師大分部,1167700041,25.00814,121.538064
4分鐘,9,武功國小(興隆),1168100020,25.004127,121.5398685
6分鐘,10,景明街口,1168000020,25.001631,121.5422579
7分鐘,11,憲光公寓,1168000140,24.999433,121.5438916
10分鐘,12,靜心高中,1168700320,24.998797,121.545859
10分鐘,13,興隆市場,1168700020,24.999632,121.547902
11分鐘,14,興德國小,1168900420,25.00097,121.5503078
13分鐘,15,興隆國小,1169000020,25.001221,121.5533283
15分鐘,16,捷運萬芳醫院站,1169500121,24.999051,121.557681
17分鐘,17,臺灣警察專科學校,1169800240,24.998268,121.5584948
進站中,18,文山運動中心(萬芳),1169600020,24.996958,121.56078
4分鐘,19,棕櫚泉社區,1169600320,24.99729,121.56229
5分鐘,20,萬利街口,1165300220,24.998733,121.56623
5分鐘,21,捷運萬芳社區站,1165300120,24.998858,121.5680836
6分鐘,22,萬芳6號公園,1165300500,24.999654,121.569055
7分鐘,23,萬芳國小,1165300460,25.001533,121.567472
7分鐘,24,萬芳活動中心,1166500420,25.002391,121.5683789
8分鐘,25,萬芳社區,1165300320,25.002253,121.5698159
尚未發車,1,萬芳社區,1166500360,25.001753,121.570457
尚未發車,2,萬芳活動中心,1166500460,25.002436,121.569474
尚未發車,3,萬芳國小,1165300420,25.001037,121.5680544
尚未發車,4,萬芳6號公園,1165300540,24.999962,121.56892
尚未發車,5,萬利街口,1165400260,24.999065,121.567262
尚未發車,6,棕櫚泉社區,1169600360,24.997568,121.5625566
進站中,7,文山運動中心(萬芳),1169600060,24.99706,121.5603813
進站中,8,臺灣警察專科學校,1169800200,24.997677,121.559454
3分鐘,9,捷運萬芳醫院站,1169600260,24.999259,121.557829
5分鐘,10,中國科技大學(興隆),1169400000,25.000405,121.5557979
8分鐘,11,興隆國小,1169200360,25.001459,121.5530398
9分鐘,12,興德國小,1169200560,25.000982,121.5500736
11分鐘,13,興隆市場,1168900260,24.999584,121.5474484
13分鐘,14,靜心高中,1168700360,24.998953,121.545835
14分鐘,15,憲光公寓,1168000100,24.999719,121.5439365
16分鐘,16,景明街口,1168200060,25.001808,121.5422591
17分鐘,17,武功國小(興隆),1168100060,25.004266,121.5399955
19分鐘,18,師大分部,1167700000,25.00767,121.5384703
20分鐘,19,捷運公館站,1009000100,25.013993,121.535185
進站中,20,臺大,1067300800,25.018029,121.53375
進站中,21,臺大綜合體育館,1066000100,25.021405,121.5343881
4分鐘,22,溫州街口,1064400460,25.026354,121.5326938
5分鐘,23,師大綜合大樓,1064400360,25.026622,121.53006
6分鐘,24,師大,1064400260,25.026738,121.5277134
8分鐘,25,金山潮州街口,1064400100,25.028663,121.526353
9分鐘,26,公企中心,1064200000,25.03066,121.52673
10分鐘,27,捷運東門站(金山),1065000500,25.033211,121.5272129
13分鐘,1,民生國中,1059100040,25.059661,121.5679233
15分鐘,2,新東街口,1058900160,25.059272,121.5663967
18分鐘,3,民生社區活動中心,1057300060,25.058808,121.5611445
19分鐘,4,聯合二村,1057600260,25.058624,121.5589234
進站中,5,介壽國中,1057200060,25.058415,121.5560444
進站中,6,公教住宅,1057400060,25.058131,121.5526273
5分鐘,7,民生敦化路口,1054600060,25.057851,121.5468517
8分鐘,8,興安華城,1048000340,25.05685,121.5439555
進站中,9,長春市場,1047900160,25.054803,121.5416683
進站中,10,臺北大學(臺北校區),1047900060,25.05488,121.5386725
4分鐘,11,長春國小,1048500160,25.054904,121.534178
7分鐘,12,松江長春路口,1045800140,25.054176,121.5329348
10分鐘,13,南京吉林路口,1045700260,25.052112,121.5303325
11分鐘,14,南京林森路口,1045400160,25.052167,121.5257174
15分鐘,15,捷運中山站(志仁高中),1035200160,25.052867,121.519866
進站中,16,後車站,1034900160,25.051433,121.5151374
3分鐘,17,延平一站(長安),1034100260,25.0519,121.513
4分鐘,18,聯合醫院中興院區(塔城),1034100640,25.051335,121.5103985
8分鐘,19,捷運北門站,1034100140,25.049002,121.510134
11分鐘,20,中華路北站,1084300040,25.045511,121.5091441
12分鐘,21,捷運西門站,1084400340,25.042516,121.5082667
15分鐘,22,小南門,1085000040,25.037868,121.5069037
16分鐘,23,聯合醫院和平院區,1006500140,25.036493,121.5065075
20分鐘,24,大埔街,1086200040,25.032074,121.5044162
22分鐘,25,廈安里,1088000140,25.02966,121.50438
23分鐘,26,南機場公寓,1088000040,25.028384,121.5054653
24分鐘,27,中華南海路口,1088100040,25.027343,121.5064379
進站中,28,國興路口,1088100240,25.025621,121.508316
進站中,29,古亭國中,1088200020,25.024664,121.509833
3分鐘,30,萬華醫院,1007200140,25.02391,121.50982
4分鐘,31,國興社區,1087700000,25.023497,121.5084584
進站中,32,青年公園(國興),1088100100,25.024607,121.507953
進站中,33,青年公園(青年),1087600140,25.025963,121.5060238
進站中,34,青年社區,1087600240,25.025473,121.504417
3分鐘,35,中正新城,1087600040,25.0248,121.5031839
4分鐘,36,青年路,1087500040,25.022481,121.502584
4分鐘,37,青年路派出所,1087400060,25.022046,121.5020378
5分鐘,38,光仁國小,1087300060,25.021416,121.5006187
8分鐘,39,果菜市場,1087200041,25.01942,121.497234
10分鐘,40,華中河濱公園,1087200140,25.01714,121.49565
4分鐘,1,華中河濱公園,1087100100,25.017171,121.4960943
4分鐘,2,果菜市場,1087200000,25.01987,121.497706
5分鐘,3,光仁國小,1086100020,25.02122,121.5004577
6分鐘,4,青年路派出所,1086000120,25.021996,121.5021881
8分鐘,5,青年路,1087500000,25.023084,121.5027448
9分鐘,6,中正新城,1087600000,25.024797,121.5032962
9分鐘,7,青年社區,1087600200,25.025478,121.504647
10分鐘,8,青年公園(青年),1087600100,25.025964,121.5062868
11分鐘,9,青年公園(國興),1088200340,25.0253,121.50712
12分鐘,10,國興路口一,1088100300,25.024585,121.5088101
14分鐘,11,國興路口,1006700300,25.025757,121.508379
15分鐘,12,中華南海路口,1006700100,25.027236,121.5066611
15分鐘,13,南機場公寓,1006900000,25.028591,121.5054077
17分鐘,14,廈安里,1006800300,25.030697,121.5041681
18分鐘,15,大埔街,1006800000,25.032684,121.504945
19分鐘,16,聯合醫院和平院區,1006500101,25.0357,121.506607
23分鐘,17,捷運西門站,1084600300,25.04173,121.5082859
25分鐘,18,中華路北站,1004200200,25.045696,121.5093807
28分鐘,19,捷運北門站,1034100601,25.050609,121.5106101
進站中,20,延平一站(長安),1034100220,25.05181,121.51269
4分鐘,21,圓環(重慶),1035000300,25.052844,121.514207
7分鐘,22,圓環(南京),1035000220,25.053651,121.5157054
9分鐘,23,捷運中山站(志仁高中),1035200120,25.05271,121.5196749
11分鐘,24,南京林森路口,1045400120,25.052069,121.5250604
進站中,25,南京吉林路口,1045700220,25.052007,121.529855
進站中,26,捷運松江南京站,1045700420,25.051969,121.5327305
5分鐘,27,長春國小,1048500120,25.05472,121.53409
7分鐘,28,臺北大學(臺北校區),1048700020,25.054618,121.5386259
8分鐘,29,長春市場,1048700120,25.054528,121.5417353
10分鐘,30,慶城街口,1054700220,25.0545,121.54574
14分鐘,31,長庚醫院,1050800000,25.05656,121.54929
進站中,32,公教住宅,1057400020,25.057928,121.5525641
進站中,33,介壽國中,1057200020,25.058238,121.5557293
進站中,34,聯合二村,1057600220,25.058501,121.5592167
3分鐘,35,民生社區活動中心,1057300020,25.05864,121.560927
6分鐘,36,廣合新村,1058800100,25.06067,121.56339
7分鐘,37,三民國小,1059200020,25.06283,121.56362
11分鐘,38,新益里,1059200140,25.062286,121.566155
6分鐘,1,行政院,1004100540,25.046484,121.5197596
9分鐘,2,臺北車站(忠孝),1004100761,25.047409,121.5139852
進站中,3,重安街口,2414300800,25.056951,121.4941915
進站中,4,中正南路,2414300200,25.059629,121.494168
3分鐘,5,中山藝術公園,2414300160,25.060541,121.492298
5分鐘,6,捷運菜寮站,2414100860,25.059479,121.490697
6分鐘,7,菜寮(重新路),2414400660,25.057446,121.4878276
7分鐘,8,菜寮(重陽路),2416101200,25.057718,121.4867994
8分鐘,9,三重稅捐分處,2416100200,25.060408,121.4869182
11分鐘,10,三民街,2416200260,25.06343,121.485248
12分鐘,11,東海中學,2416100760,25.065509,121.482592
12分鐘,12,忠孝三民街口,2416100420,25.06698,121.481556
14分鐘,13,三重商工(中正北路),2416200360,25.068996,121.479868
15分鐘,14,博愛新村,2415700460,25.069522,121.4776879
進站中,15,仙公廟,2415700360,25.07155,121.4737968
進站中,16,穀保家商,2415700660,25.072137,121.47112
進站中,17,褒仔寮,2487200160,25.072575,121.4683812
進站中,18,大同新村,2487400000,25.074202,121.46775
進站中,19,永安里,2475000500,25.077839,121.468953
3分鐘,20,九芎街口,2475000160,25.078631,121.468493
4分鐘,21,九芎廟,2475000200,25.079227,121.466562
4分鐘,22,九芎街,2475000040,25.07899,121.46489
5分鐘,23,延平里,2476400100,25.07973,121.4632078
6分鐘,24,忠義廟,2476300300,25.081292,121.461196
7分鐘,25,長安街一,2476200300,25.08286,121.45954
9分鐘,26,永康公園,2476100000,25.084877,121.4581955
進站中,27,成功國小,2476100100,25.086317,121.4575421
進站中,28,長安街,2476100200,25.087758,121.4573378
進站中,29,永樂街,2476700020,25.088157,121.458516
進站中,30,永平市場,2476500000,25.090129,121.459668
進站中,31,長榮路,2476500500,25.09233,121.4606387
5分鐘,32,捷運蘆洲站,2476000540,25.09079,121.465126
6分鐘,33,民族路口,2476000140,25.089515,121.4681391
7分鐘,34,王爺廟口,2475900640,25.08814,121.46664
9分鐘,35,空中大學(中正路),2475900940,25.086711,121.4677982
9分鐘,36,中原公寓,2475800040,25.085747,121.4684977
11分鐘,37,蘆洲國小,2475700540,25.08302,121.470464
12分鐘,38,蘆洲監理站,2475600860,25.081456,121.4714493
進站中,39,和平路口,2475600340,25.07953,121.4694739
進站中,40,蘆洲站,2475600620,25.078535,121.4691805
尚未發車,1,蘆洲站,2475600620,25.078535,121.4691805
尚未發車,2,和平路口,2475600300,25.079471,121.469744
尚未發車,3,蘆洲監理站(中正路),2475600800,25.081845,121.4716472
尚未發車,4,蘆洲國小,2475700500,25.0833,121.4703582
進站中,5,中原公寓,2475800000,25.085252,121.469088
進站中,6,空中大學(中正路),2475900900,25.087176,121.467676
進站中,7,王爺廟口,2475900600,25.08809,121.466902
3分鐘,8,民族路口,2476000100,25.090065,121.467789
5分鐘,9,捷運蘆洲站,2476000501,25.091246,121.4647878
7分鐘,10,捷運蘆洲站,2476000500,25.091486,121.4638568
7分鐘,11,長榮路,2476500540,25.092312,121.4603296
9分鐘,12,永平市場,2476500040,25.090164,121.459433
進站中,13,永樂街,2476700060,25.088362,121.458711
進站中,14,長安街,2476100240,25.087981,121.4572506
3分鐘,15,成功國小,2476100140,25.08625,121.4573852
4分鐘,16,永康公園,2476100040,25.084758,121.458052
5分鐘,17,長安街一,2476300640,25.082792,121.4593921
6分鐘,18,忠義廟,2476300340,25.081153,121.4611032
8分鐘,19,延平里,2476400140,25.079614,121.4631595
8分鐘,20,九芎街,2475000000,25.07935,121.465375
9分鐘,21,九芎廟,2475000240,25.078995,121.4665749
進站中,22,九芎街口,2475000120,25.07848,121.46855
4分鐘,23,永安里,2475000540,25.077997,121.468829
4分鐘,24,大同新村,2487400040,25.075184,121.4679157
進站中,25,褒仔寮,2487200120,25.07235,121.468721
進站中,26,穀保家商,2415700620,25.072073,121.4706925
3分鐘,27,仙公廟,2415700320,25.071403,121.473752
4分鐘,28,博愛新村,2415700420,25.069419,121.477545
5分鐘,29,三重商工(中正北路),2416200320,25.06855,121.48052
6分鐘,30,忠孝三民街口,2416200860,25.066998,121.481324
進站中,31,東海中學,2416100720,25.065398,121.482301
進站中,32,三民街,2416200220,25.063325,121.485128
4分鐘,33,三重稅捐分處,2410300040,25.060305,121.486632
5分鐘,34,菜寮(重陽路),2416101240,25.058009,121.486516
8分鐘,35,菜寮(重新路),2414400620,25.057218,121.487921
進站中,36,捷運菜寮站,2414301020,25.059073,121.4905425
進站中,37,中山藝術公園,2414300120,25.060432,121.4925214
3分鐘,38,中正南路,2414300240,25.059275,121.4940315
3分鐘,39,重安街口,2414300840,25.057057,121.4939169
進站中,40,臺北車站(鄭州),1035100420,25.048497,121.5171976
11分鐘,1,黎忠市場,1105700060,25.019475,121.557953
12分鐘,2,富陽街口,1105600060,25.021127,121.55616
13分鐘,3,捷運六張犁站(和平),1067400060,25.022926,121.554225
16分鐘,4,和平安和路口,1067500161,25.024622,121.5513507
17分鐘,5,臥龍街,1066900060,25.024707,121.5474978
18分鐘,6,國立臺北教育大學,1067000160,25.024826,121.5448151
19分鐘,7,復興南路口,1066400460,25.025103,121.5423761
20分鐘,8,國北教大實小,1066400160,25.02532,121.54065
20分鐘,9,龍門國中(和平),1066400660,25.025527,121.5391542
22分鐘,10,大安森林公園,1066200060,25.025928,121.5363198
進站中,11,溫州街口,1064400460,25.026354,121.5326938
4分鐘,12,師大綜合大樓,1064400360,25.026622,121.53006
5分鐘,13,師大,1064400260,25.026738,121.5277134
7分鐘,14,捷運古亭站(和平),1064300261,25.027172,121.523152
8分鐘,15,羅斯福潮州街口,1009300500,25.02922,121.52096
9分鐘,16,捷運中正紀念堂站(羅斯福),1009300100,25.032297,121.518848
14分鐘,17,一女中(公園),1004800000,25.036828,121.5151365
16分鐘,18,捷運台大醫院站,1004801100,25.041927,121.5163535
18分鐘,19,博物館(館前),1004700200,25.044177,121.5150573
20分鐘,20,臺北車站(開封),1004700560,25.046027,121.513879
22分鐘,21,重慶南路一段,1000500042,25.044432,121.513114
23分鐘,22,二二八和平公園,1004500060,25.042368,121.5125439
24分鐘,23,衡陽路,1000900060,25.04227,121.51021
26分鐘,24,西門市場(成都),1084400160,25.042689,121.5066535
28分鐘,25,西寧南路,1084600140,25.03991,121.50604
31分鐘,26,桂林昆明街口,1084900160,25.0381,121.5043
33分鐘,27,桂林路,1084800160,25.038472,121.5008151
34分鐘,28,萬華分局,1085300060,25.03861,121.4980643
36分鐘,29,龍山國小,1085400040,25.03611,121.49478
37分鐘,30,華江派出所,1088300140,25.034006,121.493016
39分鐘,31,力霸社區,1085700070,25.034167,121.490111
39分鐘,32,華江站,1085800340,25.032439,121.4888933
33分鐘,1,華江站,1037600320,25.032283,121.4889513
33分鐘,2,人壽一村,1085800020,25.031523,121.4902758
35分鐘,3,大理高中,1088300000,25.031919,121.491328
36分鐘,4,華江派出所,1088300100,25.034114,121.4933405
37分鐘,5,龍山國小,1085400000,25.0362,121.4953
39分鐘,6,萬華分局,1085300020,25.038421,121.4979101
41分鐘,7,桂林路,1084800120,25.038354,121.5011027
進站中,8,昆明活動中心,1085000100,25.038711,121.5040228
3分鐘,9,內江街,1084500020,25.041538,121.5051324
4分鐘,10,西門市場(漢中),1084600000,25.04202,121.507436
8分鐘,11,寶慶路,1004300220,25.041491,121.509834
10分鐘,12,博愛路,1004500100,25.043262,121.511555
12分鐘,13,臺北郵局,1004300000,25.046765,121.5112936
13分鐘,14,臺北車站(忠孝),1004700421,25.046815,121.5145215
17分鐘,15,臺大醫院,1005500340,25.042497,121.5185042
19分鐘,16,捷運中正紀念堂站(中山),1000100040,25.03643,121.51673
21分鐘,17,捷運中正紀念堂站(勞保局),1006600820,25.033718,121.5173063
25分鐘,18,自來水西分處(寧波),1007500020,25.029828,121.5157
28分鐘,19,聯合醫院婦幼院區一,1007500340,25.029987,121.5180375
30分鐘,20,南昌家具街,1008400140,25.027364,121.520315
33分鐘,21,捷運古亭站(和平),1064300220,25.026787,121.5246159
36分鐘,22,師大,1061000020,25.026535,121.5277715
37分鐘,23,師大綜合大樓,1064400320,25.026362,121.529958
38分鐘,24,溫州街口,1067100420,25.026097,121.5330125
進站中,25,大安森林公園,1066200020,25.025735,121.5362358
5分鐘,26,龍門國中(和平),1066200220,25.025407,121.5384921
6分鐘,27,復興南路口,1062200020,25.024914,121.5422397
8分鐘,28,國立臺北教育大學,1067000120,25.024603,121.5453433
11分鐘,29,臥龍街,1066900020,25.024522,121.547571
15分鐘,30,和平安和路口,1067500120,25.024272,121.5508618
18分鐘,31,捷運六張犁站(和平),1067400020,25.023243,121.5535345
20分鐘,32,富陽街口,1067400120,25.021034,121.5559108
21分鐘,33,黎忠市場,1067600520,25.01926,121.5578044
22分鐘,34,捷運麟光站,1067600320,25.01825,121.55853
3分鐘,1,國興路口一,1088100300,25.024585,121.5088101
6分鐘,2,國興路口,1006700300,25.025757,121.508379
7分鐘,3,中華南海路口,1006700100,25.027236,121.5066611
7分鐘,4,南機場公寓,1006900000,25.028591,121.5054077
9分鐘,5,廈安里,1006800300,25.030697,121.5041681
10分鐘,6,大埔街,1006800000,25.032684,121.504945
12分鐘,7,聯合醫院和平院區,1006500101,25.0357,121.506607
14分鐘,8,小南門,1004200000,25.038213,121.5073666
15分鐘,9,捷運西門站,1004200400,25.040946,121.5082192
17分鐘,10,寶慶路,1004300220,25.041491,121.509834
19分鐘,11,衡陽路口,1004500200,25.042018,121.5132
20分鐘,12,博物館(襄陽),1004600220,25.043339,121.5157262
進站中,13,捷運台大醫院站,1004600040,25.041935,121.5161481
3分鐘,14,中正紀念堂,1004800920,25.037153,121.520771
4分鐘,15,信義杭州路口,1004800820,25.0357,121.5238361
6分鐘,16,捷運東門站,1064100120,25.034134,121.5269937
進站中,17,信義永康街口(捷運東門站),1065000320,25.033693,121.529727
進站中,18,信義新生路口,1006100020,25.03353,121.5323283
3分鐘,19,捷運大安森林公園站,1065600420,25.033496,121.5356316
5分鐘,20,信義建國路口,1065800120,25.033441,121.539045
6分鐘,21,捷運大安站(信義),1065800420,25.033323,121.5432319
8分鐘,22,信義大安路口,1068300220,25.0332,121.5456
9分鐘,23,信義敦化路口,1068100120,25.033262,121.548298
11分鐘,24,捷運信義安和站(信義),1068500320,25.033142,121.551229
12分鐘,25,信義通化街口,1067900420,25.033087,121.5539941
14分鐘,26,信義光復路口,1067900320,25.03311,121.55687
16分鐘,27,世貿中心(基隆路),1105100100,25.033677,121.5601565
進站中,28,市政府(松壽),1105100320,25.035836,121.5648932
進站中,29,松壽路口,1105100420,25.035784,121.5674077
3分鐘,30,信義松仁路口(松仁),1105800440,25.034535,121.568236
5分鐘,31,捷運象山站,1104700720,25.032648,121.568984
7分鐘,32,國稅局宿舍,1108500020,25.03433,121.575678
9分鐘,33,松山商職(福德),1107700520,25.036219,121.5787474
9分鐘,34,永春高中,1108000040,25.033484,121.5796725
尚未發車,1,永春高中,1108000000,25.033446,121.5797804
尚未發車,2,松山商職(松山),1107600100,25.036029,121.578609
尚未發車,3,國業里,1107800360,25.03555,121.57704
尚未發車,4,國稅局宿舍,1108500060,25.034442,121.575497
尚未發車,5,捷運象山站,1107300660,25.033006,121.570056
尚未發車,6,信義松仁路口(松仁),1105800400,25.03369,121.5684464
尚未發車,7,松壽路口,1105100460,25.035881,121.5666401
尚未發車,8,市政府(松壽),1105100360,25.035907,121.5646562
尚未發車,9,世貿中心(基隆路),1105100140,25.033772,121.5597982
尚未發車,10,信義光復路口,1105200260,25.0331,121.55813
尚未發車,11,信義通化街口,1067900460,25.033193,121.5546221
尚未發車,12,捷運信義安和站(信義),1068500360,25.033223,121.552849
尚未發車,13,信義敦化路口,1068500260,25.033377,121.549449
尚未發車,14,信義大安路口,1068400060,25.033383,121.5461666
尚未發車,15,捷運大安站(信義),1068400260,25.033404,121.5438266
尚未發車,16,師大附中,1065800360,25.033382,121.542275
進站中,17,信義建國路口,1065800160,25.033595,121.538468
3分鐘,18,捷運大安森林公園站,1065600460,25.03355,121.5359159
4分鐘,19,信義新生路口,1065600360,25.033627,121.5331327
5分鐘,20,信義永康街口,1065100260,25.033765,121.5301447
6分鐘,21,捷運東門站,1005700060,25.034232,121.526986
8分鐘,22,信義杭州路口,1004800860,25.035417,121.5246296
10分鐘,23,中正紀念堂,1004800960,25.03739,121.52056
進站中,24,捷運台大醫院站,1004801100,25.041927,121.5163535
進站中,25,博物館(襄陽),1004600360,25.043453,121.5154942
3分鐘,26,衡陽路口,1004500240,25.042568,121.513172
進站中,27,衡陽路,1004300160,25.0423,121.51088
進站中,28,捷運西門站,1084600340,25.041649,121.5078873
3分鐘,29,小南門,1085000340,25.038008,121.5068125
4分鐘,30,聯合醫院和平院區,1006500140,25.036493,121.5065075
7分鐘,31,大埔街,1086200040,25.032074,121.5044162
8分鐘,32,廈安里,1086100540,25.030562,121.5040856
10分鐘,33,南機場公寓,1088000040,25.028384,121.5054653
12分鐘,34,中華南海路口,1088100040,25.027343,121.5064379
12分鐘,35,國興路口,1088100240,25.025621,121.508316
14分鐘,36,古亭國中,1088200020,25.024664,121.509833
15分鐘,37,萬華醫院,1007200140,25.02391,121.50982
16分鐘,38,青年公園(交通教學區),1088200160,25.02149,121.50643
17分鐘,39,青年公園(馬場町),1088200200,25.02023,121.5039
3分鐘,40,青年社宅,1087600300,25.021587,121.502643
進站中,41,青年路,1087500000,25.023084,121.5027448
進站中,42,中正新城,1087600000,25.024797,121.5032962
進站中,43,青年社區,1087600200,25.025478,121.504647
進站中,44,青年公園(青年),1087600100,25.025964,121.5062868
3分鐘,45,青年公園(國興),1088200340,25.0253,121.50712
末班已過,1,成功路三段,1146000260,25.079854,121.589838
末班已過,2,內湖高中,1147500060,25.079013,121.5883097
末班已過,3,捷運文德站(碧湖公園),1147500260,25.078585,121.584249
末班已過,4,湖光國宅,1147300060,25.07859,121.58078
末班已過,5,西湖圖書館(湖光教會),1144700061,25.07889,121.578499
末班已過,6,港墘派出所,1144800240,25.078636,121.57619
末班已過,7,瑞光港墘路口,1149200760,25.077273,121.573134
末班已過,8,仁寶大樓,1149200060,25.079478,121.568256
末班已過,9,基湖路口,1149200560,25.080515,121.5659034
末班已過,10,基湖站,1149200340,25.07973,121.5646071
末班已過,11,堤頂大道口,1046201540,25.07666,121.56305
5分鐘,12,明水路三,1046200760,25.07742,121.54947
6分鐘,13,大直抽水站,1046500060,25.07757,121.54534
7分鐘,14,北安國中,1046500360,25.07768,121.54181
9分鐘,15,忠烈祠,1040400060,25.078002,121.5355521
進站中,16,中央電台,1046200460,25.078128,121.5301447
3分鐘,17,圓山大飯店,1046201660,25.077322,121.5279642
5分鐘,18,臺北市立美術館,1046100240,25.070066,121.5230951
10分鐘,19,花博公園,1045200160,25.068595,121.5207983
11分鐘,20,捷運圓山站,1036500240,25.069195,121.5199738
末班已過,1,捷運圓山站,1036700500,25.069744,121.520216
末班已過,2,臺北市立美術館,1046100200,25.072224,121.5240266
末班已過,3,圓山大飯店,1046201620,25.07727,121.5281673
末班已過,4,中央電台,1046200420,25.077925,121.5300006
末班已過,5,忠烈祠,1046200520,25.078004,121.5319142
末班已過,6,經國七海文化園區,1046200020,25.077782,121.535397
末班已過,7,堤頂大道口,1046201500,25.07839,121.56405
末班已過,8,基湖站,1149200300,25.0801,121.56489
末班已過,9,基湖路口,1149200520,25.08025,121.5662362
末班已過,10,仁寶大樓,1149200020,25.079213,121.5684974
末班已過,11,瑞光路393巷,1149200200,25.07768,121.57298
末班已過,12,捷運港墘站(內湖高工),1144400220,25.080149,121.5746181
末班已過,13,西湖圖書館(湖光教會),1144700021,25.078956,121.57768
末班已過,14,內湖國小,1146400020,25.07929,121.5812755
末班已過,15,達人高中(臺灣戲曲學院),1146400620,25.08114,121.5868
末班已過,16,內湖派出所,1144900020,25.081788,121.5894925
5分鐘,1,博愛路,1004500100,25.043262,121.511555
7分鐘,2,臺北郵局,1004300000,25.046765,121.5112936
9分鐘,3,臺北車站(忠孝),1004700421,25.046815,121.5145215
進站中,4,捷運善導寺站,1005800120,25.044844,121.522629
進站中,5,開南中學,1005500240,25.041611,121.522214
3分鐘,6,仁愛林森路口,1005200141,25.039391,121.521603
進站中,7,信義杭州路口,1004800820,25.0357,121.5238361
進站中,8,捷運東門站,1064100120,25.034134,121.5269937
3分鐘,9,信義永康街口(捷運東門站),1065000320,25.033693,121.529727
5分鐘,10,信義新生路口,1006100020,25.03353,121.5323283
6分鐘,11,捷運大安森林公園站,1065600420,25.033496,121.5356316
9分鐘,12,信義建國路口,1065800120,25.033441,121.539045
10分鐘,13,捷運大安站(信義),1065800420,25.033323,121.5432319
12分鐘,14,信義大安路口,1068300220,25.0332,121.5456
13分鐘,15,信義敦化路口,1068100120,25.033262,121.548298
進站中,16,捷運信義安和站(信義),1068500320,25.033142,121.551229
進站中,17,信義通化街口,1067900420,25.033087,121.5539941
進站中,18,信義光復路口,1067900320,25.03311,121.55687
5分鐘,19,世貿中心(莊敬),1104900140,25.031446,121.56127
6分鐘,20,景新里,1104900440,25.02923,121.5624103
8分鐘,21,臺北醫學大學,1105000340,25.028273,121.5632643
9分鐘,22,信義國中(莊敬),1105000240,25.027402,121.565724
11分鐘,23,吳興國小(莊敬),1105000020,25.026725,121.568122
進站中,24,松仁路,1104600240,25.024432,121.569585
進站中,25,吳興街站,1104600100,25.02324,121.56976
尚未發車,1,吳興街站,1104600100,25.02324,121.56976
尚未發車,2,松仁路,1104600200,25.02453,121.5695997
進站中,3,吳興國小(松仁),1104600000,25.026234,121.568628
3分鐘,4,信義國中(莊敬),1105000200,25.027607,121.56521
4分鐘,5,臺北醫學大學,1105000300,25.028241,121.5634888
6分鐘,6,景新里,1104900400,25.029526,121.5623852
7分鐘,7,世貿中心(莊敬),1104900100,25.031399,121.561326
13分鐘,8,信義光復路口,1105200260,25.0331,121.55813
15分鐘,9,信義通化街口,1067900460,25.033193,121.5546221
17分鐘,10,捷運信義安和站(信義),1068500360,25.033223,121.552849
進站中,11,信義敦化路口,1068500260,25.033377,121.549449
進站中,12,信義大安路口,1068400060,25.033383,121.5461666
3分鐘,13,捷運大安站(信義),1068400260,25.033404,121.5438266
4分鐘,14,師大附中,1065800360,25.033382,121.542275
5分鐘,15,信義建國路口,1065800160,25.033595,121.538468
7分鐘,16,捷運大安森林公園站,1065600460,25.03355,121.5359159
7分鐘,17,信義新生路口,1065600360,25.033627,121.5331327
9分鐘,18,信義永康街口,1065100260,25.033765,121.5301447
10分鐘,19,捷運東門站,1005700060,25.034232,121.526986
進站中,20,信義杭州路口,1004800860,25.035417,121.5246296
進站中,21,中正紀念堂,1004800960,25.03739,121.52056
5分鐘,22,臺大醫院,1005500300,25.041403,121.5185552
9分鐘,23,臺北車站(忠孝),1004100760,25.04654,121.5167218
4分鐘,24,臺北車站(重慶),1004400240,25.046565,121.5132058
5分鐘,25,重慶南路一段,1000500042,25.044432,121.513114
3分鐘,26,二二八和平公園,1004500060,25.042368,121.5125439
23分鐘,1,南京吉林路口,1045700260,25.052112,121.5303325
24分鐘,2,南京林森路口,1045400160,25.052167,121.5257174
27分鐘,3,捷運中山站(志仁高中),1035200160,25.052867,121.519866
30分鐘,4,建成公園,1035300200,25.05462,121.51825
31分鐘,5,民生西路口,1035300100,25.05801,121.51829
31分鐘,6,成淵高中,1035400100,25.060893,121.5184069
33分鐘,7,防癆協會,1036400200,25.06357,121.51846
35分鐘,8,大同國小,1035300000,25.066329,121.5185171
37分鐘,9,民族承德路口,1036500000,25.06894,121.5185487
39分鐘,10,庫倫街口,1036700400,25.072586,121.5190411
40分鐘,11,明倫高中,1036800000,25.074249,121.5199745
42分鐘,12,劍潭國小,1116700200,25.081066,121.5227513
43分鐘,13,圓山皇宮大廈,1116600100,25.083356,121.523596
46分鐘,14,大南路口,1116700000,25.0879,121.52225
47分鐘,15,士商路,1116800100,25.091,121.51989
49分鐘,16,陽明高中,1116500860,25.092141,121.517889
52分鐘,17,社子市場,1117200100,25.087505,121.5090743
55分鐘,18,社園里,1117200600,25.089056,121.5079873
56分鐘,19,社子派出所,1117200360,25.089599,121.5064251
57分鐘,20,永倫里(南),1117200760,25.089467,121.503968
57分鐘,21,社子國小,1117200400,25.089904,121.5025776
58分鐘,22,永倫里(延平),1117500100,25.091148,121.500682
預計19:30發車,1,社子國小二,1117200540,25.090017,121.5020824
預計19:30發車,2,社子國小,1117200440,25.089646,121.5028759
預計19:30發車,3,永倫里(南),1117200720,25.089298,121.504244
預計19:30發車,4,社子派出所,1117200320,25.089332,121.5056145
預計19:30發車,5,社子市場二,1117200240,25.088796,121.5081045
預計19:30發車,6,社子市場,1117200140,25.088046,121.5087166
預計19:30發車,7,福港街,1116800241,25.089884,121.517833
預計19:30發車,8,承德路四段,1116800340,25.089268,121.5204586
預計19:30發車,9,大南路口,1116700040,25.088519,121.5215607
預計19:30發車,10,圓山皇宮大廈,1116600140,25.083468,121.5233264
預計19:30發車,11,劍潭國小,1116600240,25.081056,121.5223096
預計19:30發車,12,明倫高中,1036700240,25.07344,121.5191524
預計19:30發車,13,庫倫街口,1036600040,25.071066,121.5183341
預計19:30發車,14,民族承德路口,1036500040,25.067913,121.5182673
預計19:30發車,15,大同國小,1036300040,25.064874,121.5181
預計19:30發車,16,民權中山路口,1045200220,25.062714,121.5223009
進站中,17,捷運中山國小站,1045100020,25.062668,121.5253813
4分鐘,18,民權吉林路口,1046800020,25.062546,121.5300637
5分鐘,19,捷運行天宮站(松江路),1046800240,25.060535,121.5331063
6分鐘,20,長春松江路口,1048500040,25.055006,121.533011
53分鐘,1,捷運台北101/世貿站(市府),1100100100,25.034512,121.5635759
55分鐘,2,市政府(市府),1100800100,25.038366,121.5636251
5分鐘,3,松山高中(基隆路),1107000300,25.044234,121.5664817
7分鐘,4,基隆路口,1106900000,25.04831,121.568923
8分鐘,5,饒河街觀光夜市(八德),1056600420,25.049815,121.5714654
10分鐘,6,松山農會,1056600020,25.049902,121.5738483
11分鐘,7,松山車站(八德),1056700020,25.049975,121.5772464
15分鐘,8,玉成里,1157700020,25.050867,121.5809831
17分鐘,9,松山磚廠,1156300220,25.052203,121.5842017
19分鐘,10,南港路三段,1156300320,25.052936,121.5872289
19分鐘,11,西新里(新新公園),1156300020,25.053286,121.5896618
20分鐘,12,玉成國小,1156300120,25.054083,121.5921075
23分鐘,13,南港分局(向陽),1155100300,25.055334,121.5944152
25分鐘,14,石潭公園(成功),1147000400,25.061289,121.591281
32分鐘,15,上灣仔,1146700000,25.066818,121.5907148
32分鐘,16,湖興,1146700100,25.067861,121.5908537
34分鐘,17,國防醫學中心,1147200100,25.07121,121.5900311
36分鐘,18,三總內湖站,1149000200,25.071852,121.592095
40分鐘,19,將軍嶺,1147200200,25.073809,121.5900167
41分鐘,20,方濟中學,1146200000,25.076884,121.5902313
42分鐘,21,成功路三段,1146000200,25.079617,121.5899398
44分鐘,22,內湖派出所,1147200060,25.081987,121.590028
46分鐘,23,達人高中(臺灣戲曲學院),1146400660,25.08132,121.58718
48分鐘,24,內湖國小,1146400060,25.079397,121.581399
50分鐘,25,西湖圖書館(湖光教會),1144700060,25.079106,121.5779835
52分鐘,26,捷運港墘站(內湖高工),1144400260,25.079836,121.5761086
53分鐘,27,麗山國中,1144400360,25.080638,121.5738603
55分鐘,28,麗山街,1144400460,25.081473,121.571386
56分鐘,29,恕德家商,1144400060,25.082118,121.5694613
58分鐘,30,捷運西湖站,1144400160,25.082421,121.5658681
59分鐘,31,治磐新村,1144200160,25.083069,121.5640985
60分鐘,32,文湖國小,1144600060,25.084381,121.5615357
62分鐘,33,美麗華,1046400260,25.084817,121.5581193
65分鐘,34,捷運劍南路站,1046400360,25.085271,121.5546799
68分鐘,35,明水路一,1046600140,25.083327,121.550812
69分鐘,36,明水路二,1046600240,25.07972,121.55214
71分鐘,37,明水路三,1046200760,25.07742,121.54947
72分鐘,38,大直抽水站,1046500060,25.07757,121.54534
73分鐘,39,永安里,1046500420,25.078877,121.546182
75分鐘,40,捷運大直站,1046500520,25.080216,121.5479855
76分鐘,41,植福宮,1046300000,25.081609,121.5488002
76分鐘,42,自強隧道(大直教會),1046400100,25.083737,121.5493072
21分鐘,1,明水路一,1046600140,25.083327,121.550812
22分鐘,2,明水路二,1046600240,25.07972,121.55214
24分鐘,3,明水路三,1046200760,25.07742,121.54947
25分鐘,4,大直抽水站,1046500060,25.07757,121.54534
27分鐘,5,永安里,1046500420,25.078877,121.546182
28分鐘,6,捷運大直站,1046500520,25.080216,121.5479855
28分鐘,7,植福宮,1046300000,25.081609,121.5488002
29分鐘,8,自強隧道(大直教會),1046400100,25.083737,121.5493072
30分鐘,9,自強隧道,1046400020,25.085862,121.5518959
32分鐘,10,捷運劍南路站,1046400320,25.08484,121.555253
33分鐘,11,美麗華,1144600120,25.084538,121.5581969
35分鐘,12,文湖國小,1144600020,25.084151,121.5615165
36分鐘,13,治磐新村,1149300020,25.082945,121.5638416
37分鐘,14,捷運西湖站,1149300220,25.082197,121.5658848
39分鐘,15,恕德家商,1149300120,25.081963,121.5690454
41分鐘,16,麗山街,1144400420,25.081132,121.57184
43分鐘,17,捷運港墘站(內湖高工),1144400220,25.080149,121.5746181
44分鐘,18,西湖圖書館(湖光教會),1144700021,25.078956,121.57768
進站中,19,內湖國小,1146400020,25.07929,121.5812755
進站中,20,達人高中(臺灣戲曲學院),1146400620,25.08114,121.5868
3分鐘,21,內湖派出所,1144900020,25.081788,121.5894925
8分鐘,22,成功路三段,1146000260,25.079854,121.589838
9分鐘,23,方濟中學,1146000140,25.076435,121.5900771
10分鐘,24,將軍嶺,1147200240,25.073372,121.58972
13分鐘,25,三總內湖站,1149000100,25.071852,121.592095
17分鐘,26,國防醫學中心,1147200140,25.071037,121.5898699
18分鐘,27,湖興,1146700140,25.06803,121.5906611
19分鐘,28,上灣仔,1146700040,25.067,121.5905214
22分鐘,29,石潭公園(成功),1146700240,25.061041,121.591015
23分鐘,30,南港分局(向陽),1155100340,25.055748,121.5937887
24分鐘,31,玉成國小,1157000060,25.054384,121.5928002
25分鐘,32,西新里(新新公園),1155400060,25.053503,121.5899925
26分鐘,33,南港路三段,1155400260,25.053048,121.5877474
27分鐘,34,松山磚廠,1155400160,25.05265,121.5850508
30分鐘,35,玉成里,1157700060,25.050922,121.5809118
33分鐘,36,松山車站(八德),1056700062,25.050168,121.576598
34分鐘,37,松山農會,1056600060,25.050073,121.574914
36分鐘,38,饒河街觀光夜市(八德),1056600460,25.05,121.5716
39分鐘,39,基隆路口二,1106900140,25.047993,121.5682545
40分鐘,40,松山高中(基隆路),1107000340,25.044449,121.5662804
45分鐘,41,市政府(松高),1107300220,25.03902,121.56453
47分鐘,42,市政府(松智),1104700340,25.036834,121.5653434
49分鐘,43,101國際購物中心,1100100040,25.034261,121.565358
51分鐘,44,捷運台北101/世貿站(信義),1104900360,25.033242,121.5645984
15分鐘,1,南港公園一,1156900100,25.043971,121.5929045
15分鐘,2,南港公園,1156900060,25.04584,121.59264
17分鐘,3,修德國小,1155600060,25.046622,121.5894869
18分鐘,4,聯合醫院忠孝院區(同德),1155900360,25.046237,121.5862517
20分鐘,5,捷運後山埤站(玉成),1156200260,25.04521,121.5829604
21分鐘,6,捷運後山埤站(永吉),1156200360,25.045397,121.581802
23分鐘,7,五分埔商圈(中坡北),1156200000,25.047232,121.58077
24分鐘,8,松山車站(松隆),1108700060,25.048183,121.5789197
26分鐘,9,松山車站(松山),1109000040,25.047159,121.577685
進站中,10,永吉松山路口,1108900040,25.044863,121.5776905
進站中,11,捷運永春站(松山),1106100140,25.041936,121.577654
5分鐘,12,捷運永春站(忠孝),1106100260,25.040967,121.575743
6分鐘,13,市立工農,1106600060,25.041089,121.5724391
12分鐘,14,消防局(松仁),1107300441,25.038604,121.568284
12分鐘,15,興雅國中,1107300740,25.037232,121.5682685
15分鐘,16,信義松仁路口(松仁),1105800440,25.034535,121.568236
16分鐘,17,松平路口,1104600340,25.030795,121.568193
17分鐘,18,信義國中(松仁),1105900040,25.02881,121.568164
18分鐘,19,吳興國小(松仁),1104600040,25.026231,121.568554
20分鐘,20,松仁路,1104600240,25.024432,121.569585
21分鐘,21,吳興街站,1104600100,25.02324,121.56976
31分鐘,1,吳興街站,1104600100,25.02324,121.56976
31分鐘,2,松仁路,1104600200,25.02453,121.5695997
32分鐘,3,吳興國小(松仁),1104600000,25.026234,121.568628
34分鐘,4,信義國中(松仁),1105900000,25.02881,121.568464
34分鐘,5,松平路口,1105800300,25.03124,121.56839
37分鐘,6,信義松仁路口(松仁),1105800400,25.03369,121.5684464
39分鐘,7,興雅國中,1107300700,25.03724,121.568534
41分鐘,8,消防局(松仁),1107300400,25.039991,121.568621
42分鐘,9,市立工農,1106000020,25.040854,121.5726502
45分鐘,10,捷運永春站(忠孝),1106100220,25.040733,121.575809
47分鐘,11,捷運永春站(松山),1106100100,25.04195,121.5778998
47分鐘,12,雙永國小,1106200000,25.043558,121.5779186
48分鐘,13,永吉松山路口,1106200100,25.045005,121.5779069
49分鐘,14,松山車站(松山),1109000000,25.047269,121.5779129
51分鐘,15,松山車站,1056700120,25.049806,121.578206
進站中,16,五分埔商圈(中坡北),1156200040,25.04799,121.58003
3分鐘,17,捷運後山埤站(永吉),1156200320,25.045234,121.5819452
4分鐘,18,捷運後山埤站(玉成),1156200220,25.045088,121.5829419
5分鐘,19,聯合醫院忠孝院區(同德),1155600220,25.046173,121.5864802
7分鐘,20,修德國小,1155600020,25.046351,121.5902235
8分鐘,21,南港公園,1156900020,25.045951,121.5921143
9分鐘,22,南港公園一,1156900140,25.043925,121.5927772
10分鐘,23,南港花園社區四,1156900340,25.039482,121.593565
11分鐘,24,南港花園社區三,1156900260,25.038953,121.5926327
12分鐘,25,南港花園社區二,1158200100,25.040031,121.5911518
14分鐘,26,南港花園社區一,1158200040,25.041068,121.591596
14分鐘,27,南港花園社區五,1158200320,25.04004,121.5926
25分鐘,1,敬業四路,1046201940,25.081855,121.5584464
26分鐘,2,大直美堤花園二,1046600660,25.08002,121.5574829
27分鐘,3,大直美堤花園三,1046201360,25.080032,121.5556576
28分鐘,4,明水路口,1046200860,25.08014,121.55263
29分鐘,5,明水路一,1046600100,25.082292,121.551413
進站中,6,自強隧道,1046400040,25.083774,121.5490281
3分鐘,7,植福宮,1046300040,25.080848,121.5482394
4分鐘,8,捷運大直站,1046500560,25.079923,121.5461397
9分鐘,9,復興北村,1047600640,25.064978,121.5441547
13分鐘,10,民權敦化路口,1054100020,25.06202,121.5476253
14分鐘,11,民權東路口,1054200120,25.061587,121.5496186
17分鐘,12,民生敦化路口,1054600040,25.057956,121.548902
19分鐘,13,長春敦化路口,1054800440,25.05458,121.54883
21分鐘,14,臺北小巨蛋,1059500040,25.052139,121.548768
23分鐘,15,八德敦化路口,1055100040,25.04864,121.54874
25分鐘,16,市民敦化路口,1055700240,25.045271,121.548797
進站中,17,忠孝敦化路口,1069000140,25.041865,121.5487541
進站中,18,仁愛敦化路口,1068500140,25.039043,121.548697
5分鐘,19,信義敦化路口,1068100140,25.033775,121.548726
7分鐘,20,捷運信義安和站(信義),1068500320,25.033142,121.551229
8分鐘,21,信義通化街口,1067900420,25.033087,121.5539941
9分鐘,22,信義光復路口,1067900320,25.03311,121.55687
12分鐘,23,世貿中心(莊敬),1104900140,25.031446,121.56127
13分鐘,24,景新里,1104900440,25.02923,121.5624103
14分鐘,25,臺北醫學大學,1105000340,25.028273,121.5632643
16分鐘,26,信義國中(莊敬),1105000240,25.027402,121.565724
17分鐘,27,吳興國小(松仁),1104600001,25.027082,121.568415
19分鐘,28,信義國中(松仁),1105900000,25.02881,121.568464
20分鐘,29,松平路口,1105800300,25.03124,121.56839
21分鐘,30,捷運象山站,1104700720,25.032648,121.568984
進站中,31,國稅局宿舍,1108500020,25.03433,121.575678
3分鐘,32,松山商職(信義),1108600020,25.035968,121.5777733
4分鐘,33,松山商職(福德),1107700520,25.036219,121.5787474
末班已過,34,松友新村,1107700620,25.036858,121.581141
末班已過,35,信義行政中心(奉天宮),1107800120,25.037669,121.5832737
末班已過,36,大道路,1107700000,25.040321,121.5827027
末班已過,37,忠孝大道路口,1107700400,25.042496,121.5815915
末班已過,38,春光公園,1106200260,25.042632,121.580447
末班已過,39,永春公寓,1107600040,25.039975,121.5777181
末班已過,40,松山商職(松山),1107600140,25.036576,121.5783351
5分鐘,41,永春高中,1108000040,25.033484,121.5796725
進站中,1,永春高中,1108000000,25.033446,121.5797804
進站中,2,松山商職(松山),1107600100,25.036029,121.578609
末班已過,3,永春公寓,1107600000,25.040006,121.5779488
末班已過,4,永春里(忠孝),1107700120,25.041101,121.5785081
末班已過,5,春光公園,1106200220,25.042737,121.580888
末班已過,6,忠孝大道路口,1107700440,25.042363,121.581579
末班已過,7,大道路,1107700040,25.040157,121.5827287
末班已過,8,信義行政中心(奉天宮),1107800160,25.03789,121.58325
末班已過,9,松友新村,1107700660,25.037055,121.580964
末班已過,10,松山商職(福德),1107700560,25.036372,121.5787375
3分鐘,11,國業里,1107800360,25.03555,121.57704
4分鐘,12,國稅局宿舍,1108500060,25.034442,121.575497
9分鐘,13,松平路口,1104600340,25.030795,121.568193
10分鐘,14,信義國中(松仁),1105900040,25.02881,121.568164
12分鐘,15,吳興國小(莊敬),1105800260,25.026855,121.5680489
14分鐘,16,信義國中(莊敬),1105000200,25.027607,121.56521
15分鐘,17,臺北醫學大學,1105000300,25.028241,121.5634888
17分鐘,18,景新里,1104900400,25.029526,121.5623852
18分鐘,19,世貿中心(莊敬),1104900100,25.031399,121.561326
24分鐘,20,信義光復路口,1105200260,25.0331,121.55813
26分鐘,21,信義通化街口,1067900460,25.033193,121.5546221
進站中,22,捷運信義安和站(信義),1068500360,25.033223,121.552849
3分鐘,23,信義敦化路口,1068500260,25.033377,121.549449
5分鐘,24,仁愛國中,1068900100,25.035951,121.5490897
6分鐘,25,安和敦化路口,1068900400,25.039761,121.5489579
9分鐘,26,捷運忠孝敦化站,1069000200,25.043012,121.549174
12分鐘,27,市民大道口,1055700000,25.045757,121.5491941
14分鐘,28,市立體育場,1054900200,25.048949,121.549204
15分鐘,29,臺北小巨蛋,1055000000,25.05258,121.54933
18分鐘,30,長庚醫院,1050800000,25.05656,121.54929
19分鐘,31,富錦街口,1057200100,25.0596,121.55006
23分鐘,32,民權敦化路口,1054100060,25.062035,121.5482873
進站中,33,五常街口,1047600200,25.064149,121.5444202
7分鐘,34,大直國小,1046500220,25.079711,121.5453154
9分鐘,35,捷運大直站,1046500520,25.080216,121.5479855
10分鐘,36,植福宮,1046300000,25.081609,121.5488002
11分鐘,37,自強隧道(大直教會),1046400100,25.083737,121.5493072
12分鐘,38,自強隧道,1046400020,25.085862,121.5518959
14分鐘,39,捷運劍南路站,1046400320,25.08484,121.555253
進站中,40,美麗華,1144600120,25.084538,121.5581969
21分鐘,1,臺北車站(青島),1004100820,25.044844,121.517704
24分鐘,2,臺大醫院,1005500340,25.042497,121.5185042
25分鐘,3,仁愛中山路口,1005100020,25.039129,121.5184523
進站中,4,仁愛林森路口,1005200120,25.038769,121.5213453
進站中,5,仁愛紹興街口,1005200220,25.038452,121.5235878
3分鐘,6,仁愛臨沂街口,1006000220,25.038218,121.5280453
5分鐘,7,仁愛新生路口,1006200120,25.038163,121.5324028
6分鐘,8,幸安國小,1065100120,25.038044,121.5343357
7分鐘,9,仁愛建國路口一,1065300020,25.038031,121.5370721
9分鐘,10,仁愛建國路口二,1065600020,25.037966,121.5406655
9分鐘,11,仁愛復興路口(福華飯店),1068500020,25.037854,121.543165
12分鐘,12,仁愛大安路口(仁愛醫院),1069100020,25.03784,121.545738
12分鐘,13,仁愛敦化路口(圓環),1068800120,25.037783,121.5476903
14分鐘,14,仁愛安和路口,1068800020,25.037721,121.5508833
15分鐘,15,仁愛國小,1068700140,25.036502,121.5520521
17分鐘,16,捷運信義安和站(安和),1068000240,25.034385,121.552398
3分鐘,17,信義通化街口,1067900420,25.033087,121.5539941
4分鐘,18,信義光復路口,1067900320,25.03311,121.55687
8分鐘,19,世貿中心(莊敬),1104900140,25.031446,121.56127
9分鐘,20,景新里,1104900440,25.02923,121.5624103
10分鐘,21,臺北醫學大學,1105000340,25.028273,121.5632643
12分鐘,22,信義國中(莊敬),1105000240,25.027402,121.565724
13分鐘,23,吳興國小(莊敬),1105000020,25.026725,121.568122
15分鐘,24,松仁路,1104600240,25.024432,121.569585
16分鐘,25,吳興街站,1104600100,25.02324,121.56976
進站中,1,吳興街站,1104600100,25.02324,121.56976
進站中,2,松仁路,1104600200,25.02453,121.5695997
進站中,3,吳興國小(松仁),1104600000,25.026234,121.568628
4分鐘,4,信義國中(莊敬),1105000200,25.027607,121.56521
5分鐘,5,臺北醫學大學,1105000300,25.028241,121.5634888
7分鐘,6,景新里,1104900400,25.029526,121.5623852
8分鐘,7,世貿中心(莊敬),1104900100,25.031399,121.561326
12分鐘,8,世貿中心(基隆路),1105100100,25.033677,121.5601565
15分鐘,9,市議會,1107300300,25.037028,121.5620977
16分鐘,10,國父紀念館,1107300560,25.037685,121.5609264
17分鐘,11,仁愛光復路口,1107300060,25.0377,121.55781
19分鐘,12,仁愛延吉街口,1069600060,25.037774,121.5557793
19分鐘,13,仁愛國泰醫院,1068700360,25.037828,121.5532159
20分鐘,14,仁愛安和路口,1068800060,25.037852,121.5516958
22分鐘,15,仁愛敦化路口(圓環),1068800160,25.038013,121.5472892
23分鐘,16,仁愛復興路口(福華飯店),1068500060,25.03806,121.544071
25分鐘,17,仁愛建國路口一,1065700060,25.038167,121.5394276
27分鐘,18,幸安國小,1065100160,25.038238,121.5343376
進站中,19,仁愛新生路口,1065100060,25.038245,121.5331329
進站中,20,仁愛臨沂街口,1006000260,25.03834,121.52952
3分鐘,21,仁愛杭州路口,1005500060,25.038352,121.5254546
5分鐘,22,仁愛林森路口,1005200160,25.038912,121.5211551
6分鐘,23,仁愛中山路口,1005100060,25.039261,121.5183669
11分鐘,24,捷運台大醫院站,1004801100,25.041927,121.5163535
15分鐘,1,捷運大安森林公園站,1065600460,25.03355,121.5359159
15分鐘,2,信義新生路口,1065600360,25.033627,121.5331327
16分鐘,3,信義永康街口,1065100260,25.033765,121.5301447
18分鐘,4,捷運東門站,1005700060,25.034232,121.526986
20分鐘,5,信義杭州路口,1004800860,25.035417,121.5246296
21分鐘,6,中正紀念堂,1004800960,25.03739,121.52056
26分鐘,7,一女中(貴陽),1004800260,25.038656,121.5144986
28分鐘,8,東吳大學城中校區,1004800760,25.03918,121.50941
30分鐘,9,小南門(和平院區),1004200160,25.03723,121.507745
進站中,10,桂林昆明街口,1084900160,25.0381,121.5043
3分鐘,11,桂林路,1084800160,25.038472,121.5008151
5分鐘,12,龍山寺(西園),1085500541,25.0363,121.49929
7分鐘,13,中國時報,1085500160,25.035454,121.4969752
10分鐘,14,華江派出所,1088300140,25.034006,121.493016
11分鐘,15,大理高中,1085800140,25.03162,121.490827
12分鐘,16,綜合市場,1085800240,25.03054,121.4898
進站中,1,榮德里,1087100200,25.018859,121.493379
進站中,2,東隆宮,1086600000,25.02288,121.49163
進站中,3,和德里,1086500000,25.024898,121.4906879
進站中,4,環南市場,1086500100,25.027671,121.4894532
3分鐘,5,綜合市場,1085800200,25.03062,121.49029
4分鐘,6,大理高中,1088300000,25.031919,121.491328
5分鐘,7,華江派出所,1088300100,25.034114,121.4933405
6分鐘,8,中國時報,1085500120,25.035221,121.496276
8分鐘,9,捷運龍山寺站,1085500320,25.035143,121.500164
11分鐘,10,龍山國中,1084900610,25.03563,121.50409
13分鐘,11,小南門(和平院區),1006600120,25.036307,121.5085509
14分鐘,12,捷運小南門站,1006600920,25.035233,121.51163
16分鐘,13,南門,1006600640,25.033565,121.515375
21分鐘,14,自來水西分處(寧波),1007500020,25.029828,121.5157
22分鐘,15,聯合醫院婦幼院區一,1007500340,25.029987,121.5180375
26分鐘,16,潮州街口,1064100400,25.030033,121.5221853
28分鐘,17,愛國東路口,1064100200,25.03276,121.522887
進站中,18,金甌女中,1064100000,25.034934,121.5241858
進站中,19,捷運東門站,1064100120,25.034134,121.5269937
3分鐘,20,信義永康街口(捷運東門站),1065000320,25.033693,121.529727
4分鐘,21,信義新生路口,1006100020,25.03353,121.5323283
6分鐘,22,捷運大安森林公園站,1065600420,25.033496,121.5356316
9分鐘,23,大安國宅,1065900000,25.029775,121.5380059
7分鐘,1,龍山寺(剝皮寮),1085200701,25.036891,121.501585
7分鐘,2,桂林路,1084800160,25.038472,121.5008151
9分鐘,3,龍山寺(西園),1085500541,25.0363,121.49929
10分鐘,4,大理服飾,1085500040,25.034146,121.498448
11分鐘,5,西園29服飾基地,1085900040,25.03244,121.49746
13分鐘,6,華江高中(西園),1085900140,25.029658,121.4959508
14分鐘,7,環南市場(西藏),1088400060,25.028698,121.493015
16分鐘,8,雙園國中,1086400220,25.027514,121.4930716
19分鐘,9,寶興街,1086700220,25.025798,121.4943587
20分鐘,10,民和街口,1086700040,25.024334,121.49501
21分鐘,11,楊聖廟,1086700140,25.022395,121.495706
22分鐘,12,東園公園,1088500020,25.021365,121.495968
進站中,1,東園公園,1088500020,25.021365,121.495968
進站中,2,楊聖廟,1086700100,25.02281,121.49573
3分鐘,3,民和街口,1086700000,25.024252,121.4952326
3分鐘,4,寶興街,1086700260,25.025956,121.494436
6分鐘,5,西園路二段,1086400000,25.027153,121.4941737
6分鐘,6,華江高中(西園),1085900100,25.029584,121.4961628
7分鐘,7,西園29服飾基地,1085900000,25.03244,121.497718
進站中,8,大理服飾,1085500000,25.034147,121.498768
4分鐘,9,捷運龍山寺站,1085500320,25.035143,121.500164
進站中,1,捷運善導寺站,1005800120,25.044844,121.522629
3分鐘,2,成功中學(林森),1005100140,25.042924,121.5226887
進站中,3,立法院,1005100560,25.043292,121.519461
4分鐘,4,臺北車站(忠孝),1004100761,25.047409,121.5139852
進站中,5,重安街口,2414300800,25.056951,121.4941915
3分鐘,6,中正南路,2414300200,25.059629,121.494168
進站中,7,大同路口,2414300020,25.061403,121.49493
3分鐘,8,正義重新路口,2414700300,25.063532,121.4975969
3分鐘,9,長元西街口,2414700001,25.065218,121.497108
5分鐘,10,長壽西街口,2414600200,25.067084,121.496507
6分鐘,11,三安里,2414600000,25.068631,121.4960811
7分鐘,12,龍門路口,2414600700,25.070313,121.495103
9分鐘,13,介壽廣場,2414600100,25.071595,121.4935573
11分鐘,14,忠孝路口,2414500560,25.071861,121.4918809
11分鐘,15,厚德國小,2415400860,25.072129,121.4890588
13分鐘,16,永德里,2415400400,25.072404,121.4870209
14分鐘,17,格致中學(自強路),2415401300,25.074644,121.487332
16分鐘,18,三和國中,2415200000,25.076399,121.4873983
進站中,19,捷運三和國中站,2415200700,25.077101,121.486132
進站中,20,建和新村,2415200400,25.078027,121.4844874
進站中,21,幸福市場,2415200300,25.078913,121.4828427
進站中,22,徐匯中學,2415200600,25.07973,121.4814
4分鐘,23,美美新村,2415200520,25.081225,121.484717
5分鐘,24,碧華寺,2415201000,25.083312,121.4875434
7分鐘,25,慈化公園,2415102321,25.085104,121.4884832
9分鐘,26,分子尾,2415300200,25.087272,121.4879548
尚未發車,1,家樂福,2415300640,25.088196,121.486786
尚未發車,2,分子尾,2415300241,25.086181,121.488934
尚未發車,3,碧華寺,2415201040,25.083457,121.487314
進站中,4,慈福派出所,2415200960,25.082181,121.487182
進站中,5,美美新村,2415200560,25.081036,121.483714
進站中,6,徐匯中學,2415401040,25.079502,121.481391
3分鐘,7,幸福市場,2415200340,25.078537,121.483076
4分鐘,8,建和新村,2415400940,25.077775,121.4845214
4分鐘,9,捷運三和國中站,2415401430,25.07669,121.486331
進站中,10,格致中學(自強路),2415401340,25.074799,121.4872153
進站中,11,永德里,2415400440,25.072367,121.486855
3分鐘,12,厚德國小,2415400820,25.071991,121.4890427
4分鐘,13,忠孝路口,2414500520,25.071749,121.4919747
4分鐘,14,介壽廣場,2414600140,25.071369,121.49367
6分鐘,15,龍門路口,2414600741,25.070148,121.495111
6分鐘,16,三安里,2414600040,25.068994,121.495798
進站中,17,長壽西街口,2414600240,25.067022,121.49641
進站中,18,長元西街口,2414700040,25.065609,121.496788
進站中,19,正義重新路口,2414700340,25.063106,121.4974644
3分鐘,20,天台廣場,2414300360,25.06193,121.4967849
4分鐘,21,大同路口,2414300060,25.061491,121.4942547
6分鐘,22,中正南路,2414300240,25.059275,121.4940315
進站中,23,重安街口,2414300840,25.057057,121.4939169
8分鐘,24,臺北車站(忠孝),1004700421,25.046815,121.5145215
預計23:30發車,1,捷運善導寺站,1005800120,25.044844,121.522629
預計23:30發車,2,成功中學(林森),1005100140,25.042924,121.5226887
預計23:30發車,3,立法院,1005100560,25.043292,121.519461
預計23:30發車,4,臺北車站(忠孝),1004100761,25.047409,121.5139852
預計23:30發車,5,重安街口,2414300800,25.056951,121.4941915
預計23:30發車,6,中正南路,2414300200,25.059629,121.494168
預計23:30發車,7,大同路口,2414300020,25.061403,121.49493
預計23:30發車,8,正義重新路口,2414700300,25.063532,121.4975969
預計23:30發車,9,長元西街口,2414700001,25.065218,121.497108
預計23:30發車,10,長壽西街口,2414600200,25.067084,121.496507
預計23:30發車,11,三安里,2414600000,25.068631,121.4960811
預計23:30發車,12,龍門路口,2414600700,25.070313,121.495103
預計23:30發車,13,介壽廣場,2414600100,25.071595,121.4935573
預計23:30發車,14,忠孝路口,2414500560,25.071861,121.4918809
預計23:30發車,15,厚德國小,2415400860,25.072129,121.4890588
預計23:30發車,16,永德里,2415400400,25.072404,121.4870209
預計23:30發車,17,格致中學(自強路),2415401300,25.074644,121.487332
預計23:30發車,18,三和國中,2415200000,25.076399,121.4873983
預計23:30發車,19,捷運三和國中站,2415200700,25.077101,121.486132
預計23:30發車,20,建和新村,2415200400,25.078027,121.4844874
預計23:30發車,21,幸福市場,2415200300,25.078913,121.4828427
預計23:30發車,22,徐匯中學,2415200600,25.07973,121.4814
預計23:30發車,23,美美新村,2415200520,25.081225,121.484717
預計23:30發車,24,碧華寺,2415201000,25.083312,121.4875434
預計23:30發車,25,慈化公園,2415102321,25.085104,121.4884832
預計23:30發車,26,分子尾,2415300200,25.087272,121.4879548
預計23:30發車,1,家樂福,2415300640,25.088196,121.486786
預計23:30發車,2,分子尾,2415300241,25.086181,121.488934
預計23:30發車,3,碧華寺,2415201040,25.083457,121.487314
預計23:30發車,4,慈福派出所,2415200960,25.082181,121.487182
預計23:30發車,5,美美新村,2415200560,25.081036,121.483714
預計23:30發車,6,徐匯中學,2415401040,25.079502,121.481391
預計23:30發車,7,幸福市場,2415200340,25.078537,121.483076
預計23:30發車,8,建和新村,2415400940,25.077775,121.4845214
預計23:30發車,9,捷運三和國中站,2415401430,25.07669,121.486331
預計23:30發車,10,格致中學(自強路),2415401340,25.074799,121.4872153
預計23:30發車,11,永德里,2415400440,25.072367,121.486855
預計23:30發車,12,厚德國小,2415400820,25.071991,121.4890427
預計23:30發車,13,忠孝路口,2414500520,25.071749,121.4919747
預計23:30發車,14,介壽廣場,2414600140,25.071369,121.49367
預計23:30發車,15,龍門路口,2414600741,25.070148,121.495111
預計23:30發車,16,三安里,2414600040,25.068994,121.495798
預計23:30發車,17,長壽西街口,2414600240,25.067022,121.49641
預計23:30發車,18,長元西街口,2414700040,25.065609,121.496788
預計23:30發車,19,正義重新路口,2414700340,25.063106,121.4974644
預計23:30發車,20,天台廣場,2414300360,25.06193,121.4967849
預計23:30發車,21,大同路口,2414300060,25.061491,121.4942547
預計23:30發車,22,中正南路,2414300240,25.059275,121.4940315
預計23:30發車,23,重安街口,2414300840,25.057057,121.4939169
預計23:30發車,24,臺北車站(忠孝),1004700421,25.046815,121.5145215
9分鐘,1,捷運大安站(復興),1066500200,25.0341,121.54387
10分鐘,2,東豐復興路口,1066500100,25.035508,121.543866
10分鐘,3,聯合醫院仁愛院區,1066600600,25.038503,121.5439053
13分鐘,4,捷運忠孝復興站,1066600300,25.042932,121.54391
16分鐘,5,復興南路(中崙里),1055600000,25.04531,121.54399
18分鐘,6,長安復興路口,1049000060,25.048335,121.542821
19分鐘,7,長安龍江路口,1049000160,25.04838,121.54094
21分鐘,8,中山女高,1049100160,25.048443,121.5377986
進站中,9,長安東路二段,1045500060,25.048538,121.5340244
進站中,10,捷運松江南京站,1048600100,25.051799,121.533087
4分鐘,11,長春松江路口,1045900300,25.054536,121.5331386
7分鐘,12,捷運行天宮站(松江路),1048300200,25.057613,121.5331766
7分鐘,13,民權松江路口,1048300000,25.062118,121.5332139
10分鐘,14,民權吉林路口,1047000060,25.062593,121.5291615
11分鐘,15,捷運中山國小站,1045100061,25.062751,121.5259472
13分鐘,16,民權中山路口,1045200260,25.062853,121.5230024
14分鐘,17,捷運民權西路站,1036100361,25.063062,121.519192
16分鐘,18,大龍街口,1036100060,25.063069,121.517328
20分鐘,19,昌吉重慶路口,1036300200,25.065794,121.5137575
21分鐘,20,民族重慶路口,1036900000,25.068308,121.5137993
24分鐘,21,酒泉重慶路口,1037300120,25.071985,121.5143475
26分鐘,22,大龍峒保安宮,1036700020,25.071954,121.5154577
進站中,23,庫倫街口,1036700400,25.072586,121.5190411
進站中,24,明倫高中,1036800000,25.074249,121.5199745
3分鐘,25,劍潭國小,1116700200,25.081066,121.5227513
5分鐘,26,圓山皇宮大廈,1116600100,25.083356,121.523596
9分鐘,27,捷運劍潭站(北藝中心),1116200500,25.084914,121.524923
12分鐘,28,士林市場(銘傳會館),1116200100,25.087844,121.5240042
14分鐘,29,公教住宅,1116200300,25.090677,121.522119
15分鐘,30,士林區行政中心(基河),1116500160,25.092979,121.5204546
16分鐘,31,天文科學館,1116000200,25.09549,121.51822
17分鐘,32,國立科教館,1116500540,25.095347,121.5174191
18分鐘,33,兒童新樂園,1116500960,25.096364,121.5146581
103分鐘,34,中鼎第二總部大樓,1123700100,25.100425,121.509985
22分鐘,35,福美承平路口,1123700060,25.100605,121.5070565
24分鐘,36,三王宮,1127700060,25.100558,121.5059969
29分鐘,37,福美站,1127700760,25.100447,121.504489
尚未發車,1,福美站,1127700720,25.10037,121.504473
尚未發車,2,三王宮,1127700020,25.100386,121.505559
尚未發車,3,福美承平路口,1123700020,25.100501,121.507447
末班已過,4,中鼎第二總部大樓,1123700140,25.10044,121.509867
尚未發車,5,兒童新樂園,1116500620,25.096205,121.515234
尚未發車,6,國立科教館,1116500500,25.095042,121.517199
尚未發車,7,天文科學館,1116000240,25.094896,121.5185811
尚未發車,8,士林區行政中心(基河),1116500120,25.092645,121.5204072
尚未發車,9,公教住宅,1116300640,25.09051,121.52202
尚未發車,10,士林市場(銘傳會館),1116200140,25.088164,121.523626
尚未發車,11,捷運劍潭站(北藝中心),1114100440,25.084849,121.524748
尚未發車,12,圓山皇宮大廈,1116600140,25.083468,121.5233264
尚未發車,13,劍潭國小,1116600240,25.081056,121.5223096
尚未發車,14,明倫高中,1036700240,25.07344,121.5191524
尚未發車,15,庫倫街,1036700360,25.072013,121.5176838
尚未發車,16,大龍峒保安宮,1036700060,25.07209,121.515621
尚未發車,17,酒泉重慶路口,1037300160,25.072042,121.514591
尚未發車,18,酒泉街,1037300260,25.072185,121.5135209
尚未發車,19,鄰江里,1037300340,25.071303,121.510852
尚未發車,20,天師宮,1037600040,25.068085,121.510875
進站中,21,延平國小,1037600240,25.066175,121.5108318
3分鐘,22,延三觀光夜市,1037600140,25.06432,121.511052
5分鐘,23,臺北橋,1034800240,25.062047,121.5111652
7分鐘,24,涼州重慶路口,1035800320,25.060697,121.512933
9分鐘,25,捷運大橋頭站,1035900001,25.062346,121.513712
11分鐘,26,捷運民權西路站,1036100320,25.062848,121.5178677
進站中,27,民權中山路口,1045200220,25.062714,121.5223009
3分鐘,28,捷運中山國小站,1045100020,25.062668,121.5253813
4分鐘,29,民權吉林路口,1046800020,25.062546,121.5300637
7分鐘,30,捷運行天宮站(松江路),1046800240,25.060535,121.5331063
8分鐘,31,長春松江路口,1048500040,25.055006,121.533011
10分鐘,32,捷運松江南京站,1045700440,25.052281,121.5329812
12分鐘,33,長安松江路口,1045500140,25.048648,121.5329145
15分鐘,34,光華商場,1066600240,25.044608,121.5328606
4分鐘,35,進安公園,1048900420,25.046247,121.537785
4分鐘,36,中影八德大樓,1049200220,25.046706,121.5408273
5分鐘,37,中崙,1049200020,25.047208,121.54312
8分鐘,38,臺安醫院,1055600220,25.048142,121.5462971
12分鐘,39,市民敦化路口,1055700240,25.045271,121.548797
13分鐘,40,忠孝敦化路口,1069000140,25.041865,121.5487541
進站中,41,仁愛敦化路口,1068500140,25.039043,121.548697
5分鐘,42,信義敦化路口,1068100141,25.034123,121.5485022
7分鐘,43,信義大安路口,1068400060,25.033383,121.5461666
8分鐘,44,捷運大安站(信義),1068400260,25.033404,121.5438266
末班已過,1,後車站,1034900100,25.050269,121.5135627
末班已過,2,圓環(重慶),1035000300,25.052844,121.514207
末班已過,3,朝陽公園(鈕釦街),1035600100,25.055745,121.5141319
末班已過,4,靜修女中,1035600220,25.057115,121.515066
末班已過,5,雙連市場,1035600320,25.057042,121.51644
末班已過,6,捷運雙連站,1035400220,25.057346,121.518782
末班已過,7,馬偕醫院,1044800120,25.057731,121.5215461
進站中,8,台泥大樓(馬偕醫院),1044900100,25.061581,121.5230341
進站中,9,大同公司(晴光市場),1045300000,25.064288,121.5224722
4分鐘,10,大同大學,1046100000,25.0677,121.5228199
5分鐘,11,臺北市立美術館,1046100200,25.072224,121.5240266
7分鐘,12,圓山大飯店,1046201620,25.07727,121.5281673
7分鐘,13,中央電台,1046200420,25.077925,121.5300006
8分鐘,14,忠烈祠,1046200520,25.078004,121.5319142
8分鐘,15,經國七海文化園區,1046200020,25.077782,121.535397
12分鐘,16,空軍司令部,1046200920,25.079399,121.5403116
13分鐘,17,通北街口,1046201400,25.079985,121.54125
16分鐘,18,圓山新城一,1046201860,25.082444,121.540087
15分鐘,19,力行新村,1046200100,25.084092,121.5380292
14分鐘,20,圓山新城二,1046201740,25.0829,121.5398705
17分鐘,21,通北街口,1046201440,25.07998,121.541188
18分鐘,22,大直高中,1046500120,25.07949,121.54255
20分鐘,23,大直國小,1046500220,25.079711,121.5453154
21分鐘,24,捷運大直站,1046500520,25.080216,121.5479855
22分鐘,25,植福宮,1046300000,25.081609,121.5488002
24分鐘,26,自強隧道(大直教會),1046400100,25.083737,121.5493072
25分鐘,27,自強隧道,1046400020,25.085862,121.5518959
26分鐘,28,捷運劍南路站,1046400320,25.08484,121.555253
27分鐘,29,美麗華,1144600120,25.084538,121.5581969
28分鐘,30,敬業四路,1046201940,25.081855,121.5584464
31分鐘,31,大直美堤花園二,1046600660,25.08002,121.5574829
末班已過,1,大直美堤花園二,1046600660,25.08002,121.5574829
末班已過,2,大直美堤花園三,1046201360,25.080032,121.5556576
末班已過,3,明水路口,1046200860,25.08014,121.55263
末班已過,4,明水路一,1046600100,25.082292,121.551413
末班已過,5,自強隧道,1046400040,25.083774,121.5490281
末班已過,6,植福宮,1046300040,25.080848,121.5482394
末班已過,7,捷運大直站,1046500560,25.079923,121.5461397
末班已過,8,大直高中,1046200360,25.079781,121.5436838
末班已過,9,空軍司令部,1046200960,25.07961,121.54169
末班已過,10,通北街口,1046201400,25.079985,121.54125
末班已過,11,圓山新城一,1046201860,25.082444,121.540087
末班已過,12,力行新村,1046200100,25.084092,121.5380292
末班已過,13,圓山新城二,1046201740,25.0829,121.5398705
末班已過,14,通北街口,1046201440,25.07998,121.541188
末班已過,15,忠烈祠,1040400060,25.078002,121.5355521
末班已過,16,中央電台,1046200460,25.078128,121.5301447
末班已過,17,圓山大飯店,1046201660,25.077322,121.5279642
末班已過,18,臺北市立美術館,1046100240,25.070066,121.5230951
末班已過,19,大同大學,1046100040,25.0673,121.52244
末班已過,20,大同公司(晴光市場),1045300040,25.064381,121.5221621
末班已過,21,台泥大樓(馬偕醫院),1044900140,25.06083,121.5227767
末班已過,22,馬偕醫院,1044800160,25.057858,121.5213624
末班已過,23,捷運雙連站,1044800360,25.057548,121.5190343
末班已過,24,靜修女中,1035600260,25.057164,121.5149159
末班已過,25,朝陽公園(鈕釦街),1034500042,25.055504,121.514022
末班已過,26,圓環(重慶),1035000340,25.053017,121.5140239
末班已過,27,後車站,1034900140,25.050503,121.5134928
末班已過,28,捷運北門站,1034100100,25.04925,121.5103325
6分鐘,1,臺北市立美術館,1046100200,25.072224,121.5240266
8分鐘,2,圓山大飯店,1046201620,25.07727,121.5281673
9分鐘,3,中央電台,1046200420,25.077925,121.5300006
9分鐘,4,忠烈祠,1046200520,25.078004,121.5319142
9分鐘,5,經國七海文化園區,1046200020,25.077782,121.535397
12分鐘,6,空軍司令部,1046200920,25.079399,121.5403116
13分鐘,7,通北街口,1046201400,25.079985,121.54125
14分鐘,8,圓山新城一,1046201860,25.082444,121.540087
15分鐘,9,力行新村,1046200100,25.084092,121.5380292
16分鐘,10,圓山新城二,1046201740,25.0829,121.5398705
17分鐘,11,通北街口,1046201440,25.07998,121.541188
18分鐘,12,大直高中,1046500120,25.07949,121.54255
20分鐘,13,大直國小,1046500220,25.079711,121.5453154
21分鐘,14,捷運大直站,1046500520,25.080216,121.5479855
21分鐘,15,植福宮,1046300000,25.081609,121.5488002
22分鐘,16,自強隧道(大直教會),1046400100,25.083737,121.5493072
23分鐘,17,自強隧道,1046400020,25.085862,121.5518959
24分鐘,18,捷運劍南路站,1046400320,25.08484,121.555253
26分鐘,19,美麗華,1144600120,25.084538,121.5581969
28分鐘,20,敬業四路,1046201940,25.081855,121.5584464
29分鐘,21,大直美堤花園二,1046600660,25.08002,121.5574829
28分鐘,1,大直美堤花園二,1046600660,25.08002,121.5574829
28分鐘,2,大直美堤花園三,1046201360,25.080032,121.5556576
29分鐘,3,明水路口,1046200860,25.08014,121.55263
31分鐘,4,明水路一,1046600100,25.082292,121.551413
33分鐘,5,自強隧道,1046400040,25.083774,121.5490281
34分鐘,6,植福宮,1046300040,25.080848,121.5482394
35分鐘,7,捷運大直站,1046500560,25.079923,121.5461397
36分鐘,8,大直高中,1046200360,25.079781,121.5436838
37分鐘,9,空軍司令部,1046200960,25.07961,121.54169
37分鐘,10,通北街口,1046201400,25.079985,121.54125
38分鐘,11,圓山新城一,1046201860,25.082444,121.540087
39分鐘,12,力行新村,1046200100,25.084092,121.5380292
41分鐘,13,圓山新城二,1046201740,25.0829,121.5398705
42分鐘,14,通北街口,1046201440,25.07998,121.541188
46分鐘,15,忠烈祠,1040400060,25.078002,121.5355521
47分鐘,16,中央電台,1046200460,25.078128,121.5301447
48分鐘,17,圓山大飯店,1046201660,25.077322,121.5279642
51分鐘,18,臺北市立美術館,1046100240,25.070066,121.5230951
54分鐘,19,捷運圓山站,1036700500,25.069744,121.520216
9分鐘,1,圓環(重慶),1035000300,25.052844,121.514207
10分鐘,2,圓環(南京),1035000220,25.053651,121.5157054
12分鐘,3,捷運中山站(志仁高中),1035200120,25.05271,121.5196749
14分鐘,4,南京林森路口,1045400120,25.052069,121.5250604
進站中,5,南京吉林路口,1045700220,25.052007,121.529855
進站中,6,捷運松江南京站,1045700420,25.051969,121.5327305
5分鐘,7,南京建國路口,1048700320,25.051938,121.5362725
8分鐘,8,南京龍江路口,1048700420,25.051888,121.5401689
9分鐘,9,捷運南京復興站,1055000120,25.051804,121.5435614
進站中,10,南京敦化路口(小巨蛋),1055100220,25.051703,121.5483534
4分鐘,11,南京寧安街口,1058000020,25.051548,121.5547373
8分鐘,12,南京三民路口,1056400120,25.051445,121.5604478
12分鐘,13,南京公寓(捷運南京三民),1056900020,25.051276,121.564943
13分鐘,14,東興路一,1057000040,25.05013,121.56523
15分鐘,15,東興路,1107000040,25.046595,121.566472
22分鐘,16,興雅國小,1106600320,25.04552,121.5716977
進站中,17,國民住宅,1106300120,25.045455,121.574507
進站中,18,永吉松山路口,1108900040,25.044863,121.5776905
3分鐘,19,雙永國小,1106100040,25.042825,121.5777112
6分鐘,20,永春里(忠孝),1107700120,25.041101,121.5785081
7分鐘,21,春光公園,1106200220,25.042737,121.580888
8分鐘,22,忠孝大道路口,1107700440,25.042363,121.581579
10分鐘,23,大道路,1107700040,25.040157,121.5827287
12分鐘,24,信義行政中心(奉天宮),1107800160,25.03789,121.58325
14分鐘,25,松友新村,1107700660,25.037055,121.580964
15分鐘,26,松山商職(福德),1107700560,25.036372,121.5787375
16分鐘,27,國業里,1107800360,25.03555,121.57704
17分鐘,28,國稅局宿舍,1108500060,25.034442,121.575497
19分鐘,29,捷運象山站,1107300660,25.033006,121.570056
20分鐘,30,信義松仁路口(松仁),1105800400,25.03369,121.5684464
21分鐘,31,興雅國中,1107300700,25.03724,121.568534
26分鐘,32,市政府(松智),1104700340,25.036834,121.5653434
32分鐘,33,捷運象山站,1104700720,25.032648,121.568984
34分鐘,34,松德站,1108600140,25.032553,121.5744778
28分鐘,1,松德站,1108600100,25.032369,121.5746629
30分鐘,2,捷運象山站,1107300660,25.033006,121.570056
31分鐘,3,信義松仁路口(松仁),1105800400,25.03369,121.5684464
進站中,4,松壽路口,1105100460,25.035881,121.5666401
4分鐘,5,市政府(松智),1105100200,25.03685,121.5655763
9分鐘,6,興雅國中,1107300740,25.037232,121.5682685
12分鐘,7,信義松仁路口(松仁),1105800440,25.034535,121.568236
15分鐘,8,捷運象山站,1104700720,25.032648,121.568984
18分鐘,9,國稅局宿舍,1108500020,25.03433,121.575678
19分鐘,10,松山商職(信義),1108600020,25.035968,121.5777733
20分鐘,11,松山商職(福德),1107700520,25.036219,121.5787474
21分鐘,12,松友新村,1107700620,25.036858,121.581141
22分鐘,13,信義行政中心(奉天宮),1107800120,25.037669,121.5832737
進站中,14,大道路,1107700000,25.040321,121.5827027
進站中,15,忠孝大道路口,1107700400,25.042496,121.5815915
4分鐘,16,春光公園,1106200260,25.042632,121.580447
5分鐘,17,永春里(忠孝),1106100160,25.041172,121.5784105
6分鐘,18,捷運永春站(松山),1106100100,25.04195,121.5778998
7分鐘,19,雙永國小,1106200000,25.043558,121.5779186
10分鐘,20,永吉松山路口,1106800060,25.045571,121.5767976
10分鐘,21,國民住宅,1106300160,25.045661,121.5737034
11分鐘,22,興雅國小,1107000560,25.045763,121.5697613
13分鐘,23,東興路,1107000000,25.04641,121.56682
15分鐘,24,東興路一,1057000000,25.05002,121.56552
16分鐘,25,南京公寓(捷運南京三民),1056900060,25.051492,121.564777
18分鐘,26,南京三民路口,1056400160,25.051543,121.5610057
21分鐘,27,南京寧安街口,1058000060,25.051659,121.5555163
24分鐘,28,南京敦化路口(小巨蛋),1059500060,25.051793,121.5495209
26分鐘,29,捷運南京復興站,1054700060,25.051885,121.5444647
29分鐘,30,南京龍江路口,1048700460,25.051963,121.5407049
30分鐘,31,南京建國路口,1048700360,25.052089,121.5372713
32分鐘,32,捷運松江南京站,1048600160,25.052114,121.533302
35分鐘,33,南京吉林路口,1045700260,25.052112,121.5303325
37分鐘,34,南京林森路口,1045400160,25.052167,121.5257174
4分鐘,35,捷運中山站(志仁高中),1035200160,25.052867,121.519866
8分鐘,36,後車站,1034900160,25.051433,121.5151374
5分鐘,1,華中河濱公園,1087100100,25.017171,121.4960943
6分鐘,2,果菜市場,1087200000,25.01987,121.497706
7分鐘,3,萬大國小,1086900200,25.02329,121.4998941
8分鐘,4,德昌街口,1087800000,25.025045,121.500485
9分鐘,5,西藏路口,1087900100,25.028737,121.500599
11分鐘,6,萬大路,1086100600,25.030805,121.500635
11分鐘,7,莒光路口,1086100400,25.031831,121.5006153
12分鐘,8,萬華車站,1085200400,25.033974,121.501128
16分鐘,9,捷運龍山寺站,1085200360,25.03538,121.49971
17分鐘,10,龍山寺(西園),1085200600,25.03777,121.4996729
18分鐘,11,桂林路,1084800120,25.038354,121.5011027
19分鐘,12,昆明活動中心,1085000100,25.038711,121.5040228
21分鐘,13,長沙街,1085000220,25.040609,121.5056466
22分鐘,14,捷運西門站,1004200400,25.040946,121.5082192
進站中,15,寶慶路,1004300220,25.041491,121.509834
進站中,16,博愛路,1004500100,25.043262,121.511555
3分鐘,17,臺北郵局,1004300000,25.046765,121.5112936
5分鐘,18,臺北車站(忠孝),1004100720,25.046563,121.5156894
8分鐘,19,行政院,1005100340,25.04483,121.5215079
9分鐘,20,青島林森路口,1005100420,25.04373,121.5222785
12分鐘,21,北平林森路口,1004900000,25.046759,121.523978
13分鐘,22,華山公園,1044100200,25.048095,121.524405
14分鐘,23,長安林森路口,1044200220,25.04871,121.5259734
15分鐘,24,正守公園,1044200020,25.04814,121.5287092
16分鐘,25,長安國小(長安),1045600220,25.048432,121.5308318
進站中,26,捷運松江南京站,1048600100,25.051799,121.533087
進站中,27,長春松江路口,1045900300,25.054536,121.5331386
進站中,28,捷運行天宮站(松江路),1048300200,25.057613,121.5331766
4分鐘,29,松江新村,1048300100,25.061268,121.5333498
進站中,30,民權建國路口,1048400020,25.062368,121.5364984
進站中,31,民權龍江路口,1047600420,25.062325,121.540554
4分鐘,32,民權復興路口,1047600320,25.062271,121.5438692
6分鐘,33,五常街口,1047600200,25.064149,121.5444202
7分鐘,34,下埤里,1047600060,25.06719,121.543488
9分鐘,35,第二果菜市場,1047300260,25.068245,121.538856
9分鐘,36,臺北漁市,1047200461,25.068267,121.537216
13分鐘,37,建北站,1047300100,25.067193,121.534472
28分鐘,1,建北站,1047300100,25.067193,121.534472
進站中,2,臺北漁市,1047200421,25.068066,121.537162
進站中,3,第二果菜市場,1047300220,25.068039,121.538733
進站中,4,下埤里,1047600021,25.067849,121.542007
3分鐘,5,復興北村,1047600640,25.064978,121.5441547
5分鐘,6,五常街口,1054200040,25.063693,121.5440531
7分鐘,7,民權龍江路口,1047600460,25.062395,121.5412752
8分鐘,8,民權建國路口,1047700060,25.062483,121.53746
10分鐘,9,民權松江路口,1048300060,25.062524,121.5334388
12分鐘,10,捷運行天宮站(松江路),1046800240,25.060535,121.5331063
14分鐘,11,長春松江路口,1048500040,25.055006,121.533011
15分鐘,12,捷運松江南京站,1045700440,25.052281,121.5329812
17分鐘,13,長安國小(長安),1045600260,25.048559,121.5319452
18分鐘,14,正守公園,1044200060,25.048274,121.5287418
19分鐘,15,長安林森路口,1044200260,25.049022,121.5255434
21分鐘,16,華山公園,1044100240,25.048174,121.5241195
23分鐘,17,捷運善導寺站,1004900040,25.045865,121.5235453
29分鐘,18,臺北車站(忠孝),1004100760,25.04654,121.5167218
進站中,19,中華路北站,1084300041,25.044584,121.508765
3分鐘,20,捷運西門站,1084600340,25.041649,121.5078873
5分鐘,21,長沙街,1084600260,25.04073,121.50548
6分鐘,22,康定路口,1084500560,25.040578,121.5024023
8分鐘,23,祖師廟(康定),1084800340,25.03957,121.5018943
進站中,24,龍山寺(康定),1085200740,25.036305,121.5012851
進站中,25,萬華車站,1085200440,25.034863,121.5010585
3分鐘,26,莒光路口,1086100440,25.03176,121.50051
4分鐘,27,萬大路,1086000440,25.030744,121.500473
進站中,28,西藏路口,1087900140,25.02899,121.500457
進站中,29,德昌街口,1086300140,25.025812,121.5003368
4分鐘,30,萬大國小,1086900240,25.024038,121.500101
6分鐘,31,果菜市場,1087200041,25.01942,121.497234
7分鐘,32,華中河濱公園,1087200140,25.01714,121.49565
42分鐘,1,後車站,1034900100,25.050269,121.5135627
43分鐘,2,圓環(重慶),1035000300,25.052844,121.514207
45分鐘,3,圓環(南京),1035000220,25.053651,121.5157054
進站中,4,捷運中山站(志仁高中),1035200120,25.05271,121.5196749
3分鐘,5,南京林森路口,1045400120,25.052069,121.5250604
6分鐘,6,南京新生北路口,1044200340,25.05109,121.52774
6分鐘,7,長安新生北路口,1044300240,25.04914,121.5287
9分鐘,8,長安國小(長安),1045600220,25.048432,121.5308318
10分鐘,9,長安東路二段,1045500020,25.04839,121.5334062
11分鐘,10,中山女高,1049100120,25.04831,121.53607
進站中,11,進安公園,1048900420,25.046247,121.537785
3分鐘,12,中影八德大樓,1049200220,25.046706,121.5408273
4分鐘,13,中崙,1049200020,25.047208,121.54312
6分鐘,14,臺安醫院,1055600220,25.048142,121.5462971
10分鐘,15,市民敦化路口,1055700240,25.045271,121.548797
11分鐘,16,忠孝敦化路口,1069000140,25.041865,121.5487541
進站中,17,仁愛敦化路口,1068500140,25.039043,121.548697
進站中,18,信義敦化路口,1068100140,25.033775,121.548726
4分鐘,19,大安國中,1068200040,25.032377,121.5484869
5分鐘,20,成功國宅,1068200140,25.028411,121.5484575
7分鐘,21,鳳雛公園,1055700340,25.026331,121.5486689
9分鐘,22,臥龍街,1066900060,25.024707,121.5474978
10分鐘,23,國立臺北教育大學,1067000160,25.024826,121.5448151
12分鐘,24,復興南路口,1066400460,25.025103,121.5423761
13分鐘,25,國北教大實小,1066400160,25.02532,121.54065
14分鐘,26,龍門國中(和平),1066400660,25.025527,121.5391542
19分鐘,27,龍安國小(公務人力發展學院),1066000240,25.024664,121.5345198
20分鐘,28,臺大綜合體育館,1066000140,25.02155,121.5341136
21分鐘,29,臺大,1067300840,25.018239,121.533435
24分鐘,30,捷運公館站,1009000140,25.014321,121.534722
26分鐘,31,師大分部,1167700041,25.00814,121.538064
28分鐘,32,武功國小(興隆),1168100020,25.004127,121.5398685
30分鐘,33,景明街口,1168000020,25.001631,121.5422579
27分鐘,1,景明街口,1168200060,25.001808,121.5422591
28分鐘,2,武功國小(興隆),1168100060,25.004266,121.5399955
29分鐘,3,師大分部,1167700000,25.00767,121.5384703
31分鐘,4,捷運公館站,1009000100,25.013993,121.535185
34分鐘,5,臺大,1067300800,25.018029,121.53375
35分鐘,6,臺大綜合體育館,1066000100,25.021405,121.5343881
37分鐘,7,龍安國小(公務人力發展學院),1066000200,25.02527,121.5349231
38分鐘,8,大安森林公園,1066200020,25.025735,121.5362358
39分鐘,9,龍門國中(和平),1066200220,25.025407,121.5384921
40分鐘,10,復興南路口,1062200020,25.024914,121.5422397
42分鐘,11,國立臺北教育大學,1067000120,25.024603,121.5453433
43分鐘,12,臥龍街,1066900020,25.024522,121.547571
45分鐘,13,成功國宅,1067500000,25.027599,121.5490337
進站中,14,大安國中,1068200000,25.030615,121.5489397
進站中,15,信義敦化路口,1068100100,25.03196,121.54906
3分鐘,16,仁愛國中,1068900100,25.035951,121.5490897
6分鐘,17,安和敦化路口,1068900400,25.039761,121.5489579
9分鐘,18,捷運忠孝敦化站,1069000200,25.043012,121.549174
12分鐘,19,市民大道口,1055700000,25.045757,121.5491941
14分鐘,20,臺安醫院,1055600161,25.04829,121.54531
15分鐘,21,長安復興路口,1049000060,25.048335,121.542821
16分鐘,22,長安龍江路口,1049000160,25.04838,121.54094
18分鐘,23,中山女高,1049100160,25.048443,121.5377986
20分鐘,24,長安東路二段,1045500060,25.048538,121.5340244
22分鐘,25,長安國小(長安),1045600260,25.048559,121.5319452
23分鐘,26,長安國小(吉林),1045600100,25.049486,121.530068
24分鐘,27,南京東路口,1045600300,25.051132,121.530156
25分鐘,28,南京林森路口,1045400160,25.052167,121.5257174
28分鐘,29,捷運中山站(志仁高中),1035200160,25.052867,121.519866
31分鐘,30,圓環(南京),1035000260,25.053538,121.5168987
34分鐘,31,圓環(天水),1035000160,25.053167,121.5134766
37分鐘,32,聯合醫院中興院區(塔城),1034100640,25.051335,121.5103985
16分鐘,1,富泰里,1057800160,25.057201,121.5656156
20分鐘,2,三民健康路口(西松高中),1058200040,25.055245,121.5635808
22分鐘,3,西松國小,1058200240,25.05279,121.56371
25分鐘,4,南京公寓(捷運南京三民),1056900021,25.051255,121.5665356
26分鐘,5,南松山(南京),1057100020,25.05115,121.56915
28分鐘,6,饒河街觀光夜市(塔悠),1058500220,25.050545,121.571331
30分鐘,7,松山農會,1056600020,25.049902,121.5738483
31分鐘,8,松山車站(八德),1056700020,25.049975,121.5772464
31分鐘,9,松山車站,1056700120,25.049806,121.578206
34分鐘,10,玉成里,1157700020,25.050867,121.5809831
39分鐘,11,週美里,1147100420,25.05609,121.5828479
40分鐘,12,新明路,1147000220,25.057224,121.5854194
40分鐘,13,台北企業總部園區,1147100020,25.057943,121.587031
41分鐘,14,新明成功路口,1147100620,25.06008,121.590623
43分鐘,15,石潭公園,1148400220,25.06211,121.59311
45分鐘,16,蘆洲里,1148400820,25.062151,121.5972045
45分鐘,17,安康路,1148400320,25.063137,121.6011887
46分鐘,18,內湖焚化廠(安康),1148400020,25.063054,121.6030952
48分鐘,19,捷運東湖站(南湖高中),1148500300,25.067207,121.6115735
51分鐘,20,五分社區,1148700020,25.068686,121.6143563
53分鐘,21,東湖國小,1148700120,25.068103,121.61672
55分鐘,22,東湖社區,1147800100,25.069547,121.618788
56分鐘,23,康樂街,1148000800,25.07119,121.6191996
57分鐘,24,東湖國中,1148000600,25.072872,121.6194588
58分鐘,25,五分埤,1148000000,25.076133,121.6211888
59分鐘,26,康湖隧道口(白馬山莊),1148000700,25.07715,121.62288
60分鐘,27,忠三街口,2215400220,25.07844,121.624021
57分鐘,1,忠三街口,2215400260,25.07854,121.624044
57分鐘,2,康湖隧道口(白馬山莊),1148000740,25.077315,121.6228136
57分鐘,3,五分埤,1148000040,25.076201,121.621188
59分鐘,4,東湖國中,1148000640,25.072645,121.6193512
59分鐘,5,康樂街,1148000840,25.071123,121.6191349
預計19:30發車,6,東湖社區,1148000540,25.069229,121.6184776
預計19:30發車,7,東湖國小,1148700160,25.068177,121.61668
預計19:30發車,8,五分社區,1148700060,25.068763,121.6143084
預計19:30發車,9,捷運東湖站(南湖高中),1148600340,25.067493,121.6115022
預計19:30發車,10,動物之家,1148400760,25.06354,121.60998
預計19:30發車,11,內湖焚化廠(葫蘆洲公園),1148400100,25.062478,121.603466
預計19:30發車,12,內湖焚化廠(安康),1148400060,25.063126,121.603153
預計19:30發車,13,安康路,1148400360,25.063285,121.6013134
預計19:30發車,14,蘆洲里,1148400860,25.06228,121.5975
預計19:30發車,15,石潭公園,1148400260,25.06242,121.59315
預計19:30發車,16,新明成功路口,1147000560,25.060167,121.590455
預計19:30發車,17,台北企業總部園區,1147100060,25.058162,121.587344
預計19:30發車,18,新明路,1147100560,25.057336,121.5852542
預計19:30發車,19,週美里,1147000060,25.056208,121.5827604
進站中,20,玉成里,1157700060,25.050922,121.5809118
3分鐘,21,松山車站(八德),1056700062,25.050168,121.576598
5分鐘,22,松山農會,1056600060,25.050073,121.574914
7分鐘,23,饒河街觀光夜市(塔悠),1056600560,25.050387,121.571871
8分鐘,24,南松山(南京),1058500060,25.051515,121.569058
10分鐘,25,南京公寓(捷運南京三民),1056900061,25.051455,121.5666502
12分鐘,26,西松國小,1058200200,25.053597,121.5638994
15分鐘,27,西松高中,1057800000,25.05625,121.56716
9分鐘,1,後車站,1034900100,25.050269,121.5135627
10分鐘,2,圓環(重慶),1035000300,25.052844,121.514207
進站中,3,民生重慶路口,1035600000,25.056766,121.5138258
進站中,4,涼州重慶路口,1035800300,25.060669,121.5135455
4分鐘,5,捷運大橋頭站,1035900001,25.062346,121.513712
7分鐘,6,捷運民權西路站,1036100320,25.062848,121.5178677
8分鐘,7,民權中山路口,1045200220,25.062714,121.5223009
10分鐘,8,捷運中山國小站,1045100020,25.062668,121.5253813
進站中,9,民權吉林路口,1046800020,25.062546,121.5300637
3分鐘,10,民權松江路口,1046800120,25.062477,121.5328589
4分鐘,11,民權建國路口,1048400020,25.062368,121.5364984
6分鐘,12,民權龍江路口,1047600420,25.062325,121.540554
8分鐘,13,捷運中山國中站,1047600540,25.06148,121.5440343
12分鐘,14,民生復興路口,1054500020,25.057658,121.545777
13分鐘,15,民生敦化路口,1059600020,25.057587,121.5479795
14分鐘,16,公教住宅,1057400020,25.057928,121.5525641
16分鐘,17,介壽國中,1057200020,25.058238,121.5557293
進站中,18,聯合二村,1057600220,25.058501,121.5592167
進站中,19,民生社區活動中心,1057300020,25.05864,121.560927
3分鐘,20,新東街口,1058900120,25.05902,121.5664423
4分鐘,21,新東里,1058700140,25.05789,121.56903
6分鐘,22,發電所(西松高中),1058700040,25.055269,121.569528
8分鐘,23,南松山(塔悠),1058500140,25.051932,121.570154
10分鐘,24,饒河街觀光夜市(塔悠),1058500220,25.050545,121.571331
12分鐘,25,松山農會,1056600020,25.049902,121.5738483
進站中,26,松山車站(八德),1056700020,25.049975,121.5772464
4分鐘,27,玉成里,1157700020,25.050867,121.5809831
7分鐘,28,週美里一,1147000100,25.05636,121.581944
10分鐘,29,潭美國小(舊宗),1149401900,25.057957,121.581074
11分鐘,30,新湖一路口,1149401300,25.060542,121.5791317
12分鐘,31,新湖三路口(台北花市),1149401400,25.063161,121.577205
14分鐘,32,新湖行忠路口,1149401620,25.0641,121.57795
14分鐘,33,行忠行愛路口,1149400400,25.065348,121.5793229
進站中,34,瑞湖街口,1149400261,25.067659,121.576798
尚未發車,1,瑞湖街口,1149400220,25.067523,121.576485
尚未發車,2,行忠行愛路口,1149400440,25.065261,121.5792076
尚未發車,3,新湖行忠路口,1149401660,25.0642,121.57789
進站中,4,新湖三路口(台北花市),1149401440,25.06238,121.57742
進站中,5,新湖一路口,1149401340,25.060591,121.5788583
進站中,6,潭美國小(舊宗),1149401940,25.058297,121.580495
6分鐘,7,週美里一,1147000140,25.056132,121.581993
8分鐘,8,玉成里,1157700060,25.050922,121.5809118
11分鐘,9,松山車站(八德),1056700062,25.050168,121.576598
進站中,10,松山農會,1056600060,25.050073,121.574914
進站中,11,饒河街觀光夜市(塔悠),1056600560,25.050387,121.571871
4分鐘,12,南松山(塔悠),1058500100,25.0522,121.5704299
5分鐘,13,發電所(西松高中),1058700000,25.055027,121.569875
6分鐘,14,新東里,1058700100,25.057717,121.5693937
7分鐘,15,新東街口,1058900160,25.059272,121.5663967
10分鐘,16,民生社區活動中心,1057300060,25.058808,121.5611445
11分鐘,17,聯合二村,1057600260,25.058624,121.5589234
進站中,18,介壽國中,1057200060,25.058415,121.5560444
進站中,19,公教住宅,1057400060,25.058131,121.5526273
6分鐘,20,民生敦化路口,1054600060,25.057851,121.5468517
7分鐘,21,民生復興路口,1054400160,25.057908,121.545132
進站中,22,民生東路口,1054400000,25.058117,121.544388
3分鐘,23,捷運中山國中站,1047600500,25.060855,121.544405
5分鐘,24,民權龍江路口,1047600460,25.062395,121.5412752
7分鐘,25,民權建國路口,1047700060,25.062483,121.53746
9分鐘,26,民權松江路口,1048300060,25.062524,121.5334388
11分鐘,27,民權吉林路口,1047000060,25.062593,121.5291615
12分鐘,28,捷運中山國小站,1045100061,25.062751,121.5259472
15分鐘,29,民權中山路口,1045200260,25.062853,121.5230024
進站中,30,捷運民權西路站,1036100360,25.062948,121.5189775
進站中,31,成淵高中,1036000040,25.062226,121.518152
3分鐘,32,民生西路口,1035300140,25.056725,121.5179896
6分鐘,33,臺北車站(承德),1034900240,25.050735,121.5167729
7分鐘,1,松山車站(松隆),1108700060,25.048183,121.5789197
8分鐘,2,松山車站(松山),1109000040,25.047159,121.577685
進站中,3,永吉松山路口,1108900040,25.044863,121.5776905
3分鐘,4,捷運永春站(松山),1106100140,25.041936,121.577654
6分鐘,5,捷運永春站(忠孝),1106100260,25.040967,121.575743
7分鐘,6,市立工農,1106600060,25.041089,121.5724391
11分鐘,7,消防局(松仁),1107300441,25.038604,121.568284
12分鐘,8,興雅國中,1107300740,25.037232,121.5682685
14分鐘,9,松壽路口,1105100460,25.035881,121.5666401
進站中,10,101國際購物中心,1100100040,25.034261,121.565358
3分鐘,11,信義松仁路口(信義),1104700420,25.032733,121.5671167
11分鐘,12,博嘉國小,1165601860,24.999389,121.5753953
12分鐘,13,捷運木柵站,1165601660,24.997735,121.57396
15分鐘,14,木柵高工,1165300000,24.996525,121.5707783
16分鐘,15,捷運萬芳社區站,1165300101,24.998788,121.569352
17分鐘,16,萬利街口,1165400260,24.999065,121.567262
18分鐘,17,棕櫚泉社區,1169600360,24.997568,121.5625566
21分鐘,18,文山運動中心(興隆),1169600040,24.996275,121.559841
21分鐘,19,海巡署,1169800040,24.99467,121.5594932
22分鐘,20,海巡署一,1169800140,24.993046,121.558778
22分鐘,21,興隆山莊,1169800440,24.991386,121.5586916
23分鐘,22,馬明潭(再興中學),1164900240,24.989377,121.5597219
26分鐘,23,木柵公園,1164600040,24.98693,121.56074
27分鐘,24,忠順街口,1166300040,24.98477,121.5614966
28分鐘,25,國泰新村(興隆),1166000340,24.982543,121.5622646
30分鐘,26,忠順廟,1165800120,24.982483,121.56469
進站中,27,司法新村,1165700120,24.98305,121.56636
進站中,28,景文中學,1165700320,24.983787,121.5685285
進站中,29,木南公園,1165700000,24.985348,121.570615
進站中,30,指南路口,1166400300,24.987194,121.5707228
5分鐘,31,政大,1165100620,24.98778,121.574739
6分鐘,32,政大一,1166601020,24.988319,121.576427
交管不停,33,萬興圖書館,1166602400,24.98897,121.57697
9分鐘,34,大誠高中,1165200000,24.990413,121.576905
10分鐘,35,萬壽橋頭(秀明),1165200360,24.991863,121.574627
11分鐘,36,萬壽橋頭(新光),1165200400,24.992819,121.573853
12分鐘,37,貓纜動物園站,1165603300,24.996309,121.576197
13分鐘,38,捷運動物園站,1165601700,24.998553,121.579926
6分鐘,1,捷運動物園站,1165601740,24.99882,121.580221
7分鐘,2,貓纜動物園站,1165603340,24.9968,121.576778
7分鐘,3,萬壽橋頭(新光),1165200440,24.993482,121.57363
9分鐘,4,萬壽橋頭(秀明),1165200320,24.99161,121.574153
10分鐘,5,萬興國小,1165200640,24.989679,121.576757
13分鐘,6,政大一,1166601040,24.987811,121.576051
15分鐘,7,新光路口,1165100860,24.988084,121.5738817
18分鐘,8,指南路口,1166400340,24.986197,121.570658
18分鐘,9,木南公園,1165700040,24.984828,121.57011
19分鐘,10,景文中學,1165700360,24.984111,121.5689404
19分鐘,11,司法新村,1166400060,24.98335,121.56699
進站中,12,忠順廟,1166400160,24.98265,121.5645265
進站中,13,國泰新村(興隆),1166000300,24.982927,121.562389
3分鐘,14,忠順街口,1166300000,24.984307,121.5618292
5分鐘,15,木柵公園,1164600000,24.98702,121.56077
6分鐘,16,馬明潭(再興中學),1164900200,24.989363,121.5599425
7分鐘,17,興隆山莊,1164900400,24.990768,121.55919
8分鐘,18,海巡署一,1169800100,24.992388,121.5587834
8分鐘,19,海巡署,1169800000,24.993856,121.5594086
9分鐘,20,文山運動中心(興隆),1169600000,24.996475,121.560053
11分鐘,21,文山運動中心(萬芳),1169600020,24.996958,121.56078
11分鐘,22,棕櫚泉社區,1169600320,24.99729,121.56229
12分鐘,23,萬利街口,1165300220,24.998733,121.56623
13分鐘,24,捷運萬芳社區站,1165300120,24.998858,121.5680836
14分鐘,25,木柵高工,1165300041,24.996667,121.570733
進站中,26,捷運木柵站,1165601620,24.997873,121.5743716
進站中,27,博嘉國小,1165601820,24.999501,121.5755679
7分鐘,28,信義松仁路口(信義),1104700460,25.032949,121.5666876
10分鐘,29,101國際購物中心,1104700100,25.034635,121.565536
11分鐘,30,松壽路口,1105100420,25.035784,121.5674077
13分鐘,31,興雅國中,1107300700,25.03724,121.568534
14分鐘,32,消防局(松仁),1107300400,25.039991,121.568621
16分鐘,33,市立工農,1106000020,25.040854,121.5726502
18分鐘,34,捷運永春站(忠孝),1106100220,25.040733,121.575809
21分鐘,35,捷運永春站(松山),1106100100,25.04195,121.5778998
22分鐘,36,雙永國小,1106200000,25.043558,121.5779186
22分鐘,37,永吉松山路口,1106200100,25.045005,121.5779069
25分鐘,38,松山車站(松山),1109000000,25.047269,121.5779129
進站中,39,松山車站,1056700120,25.049806,121.578206
49分鐘,1,士林市場(銘傳會館),1116200100,25.087844,121.5240042
51分鐘,2,大南路口,1116700050,25.089551,121.5222856
54分鐘,3,士商路,1116800100,25.091,121.51989
55分鐘,4,陽明高中,1116500860,25.092141,121.517889
進站中,5,福美承平路口,1123700060,25.100605,121.5070565
進站中,6,三王宮,1127700060,25.100558,121.5059969
3分鐘,7,福美站,1127700760,25.100447,121.504489
4分鐘,8,洲美國小,1127700360,25.101347,121.502767
5分鐘,9,洲美街219號,1127700800,25.1017,121.5015276
7分鐘,10,洲美里,1127700100,25.102928,121.500102
26分鐘,1,洲美里,1127700140,25.102928,121.500102
26分鐘,2,洲美街219號,1127700840,25.10163,121.501442
27分鐘,3,洲美國小,1127700320,25.101263,121.502682
27分鐘,4,福美站,1127700720,25.10037,121.504473
28分鐘,5,三王宮,1127700020,25.100386,121.505559
28分鐘,6,福美承平路口,1123700020,25.100501,121.507447
35分鐘,7,兒童新樂園,1116500620,25.096205,121.515234
36分鐘,8,士林高商,1116500040,25.09423,121.51712
37分鐘,9,士林區行政中心(中正),1116300220,25.092849,121.519562
38分鐘,10,士林國中,1116200220,25.094604,121.5233015
39分鐘,11,士林國小,1116300040,25.094058,121.5247893
40分鐘,12,小北街,1116300541,25.090999,121.526725
42分鐘,13,捷運劍潭站(北藝中心),1116200500,25.084914,121.524923
36分鐘,1,敬業三路一,1046600840,25.083024,121.556223
36分鐘,2,敬業三路二,1046600940,25.081246,121.5562232
37分鐘,3,大直美堤花園三,1046201320,25.079873,121.5566492
39分鐘,4,敬業四路,1046601000,25.081142,121.558531
43分鐘,5,美麗華,1046400260,25.084817,121.5581193
44分鐘,6,捷運劍南路站,1046400360,25.085271,121.5546799
47分鐘,7,自強隧道,1046400040,25.083774,121.5490281
49分鐘,8,植福宮,1046300040,25.080848,121.5482394
進站中,9,捷運大直站,1046500560,25.079923,121.5461397
5分鐘,10,河濱公園大佳段,1047200760,25.072613,121.5406947
6分鐘,11,大佳國小,1047200260,25.072723,121.537013
10分鐘,12,新生公園(林安泰),1047200840,25.071815,121.5320496
10分鐘,13,新生公園(松江),1047100740,25.071033,121.532844
12分鐘,14,新喜里,1047100540,25.06693,121.53304
14分鐘,15,行天宮,1047200540,25.063484,121.5331713
16分鐘,16,捷運行天宮站(松江路),1046800240,25.060535,121.5331063
19分鐘,17,長春松江路口,1048500040,25.055006,121.533011
20分鐘,18,捷運松江南京站,1045700440,25.052281,121.5329812
23分鐘,19,長安松江路口,1045500140,25.048648,121.5329145
26分鐘,20,光華商場,1066600240,25.044608,121.5328606
29分鐘,21,捷運忠孝新生站,1065200140,25.040288,121.532693
30分鐘,22,仁愛新生路口,1065100040,25.038512,121.5326821
32分鐘,23,信義新生路口,1065600340,25.034036,121.5325798
33分鐘,24,金華新生路口,1065000240,25.03087,121.53346
3分鐘,25,大安森林公園,1066200020,25.025735,121.5362358
4分鐘,26,龍門國中(和平),1066200220,25.025407,121.5384921
5分鐘,27,復興南路口,1062200020,25.024914,121.5422397
7分鐘,28,國立臺北教育大學,1067000120,25.024603,121.5453433
8分鐘,29,臥龍街,1066900020,25.024522,121.547571
11分鐘,30,和平安和路口,1067500120,25.024272,121.5508618
14分鐘,31,捷運六張犁站(和平),1067400020,25.023243,121.5535345
15分鐘,32,富陽街口,1067400120,25.021034,121.5559108
17分鐘,33,黎忠市場,1067600520,25.01926,121.5578044
18分鐘,34,捷運麟光站,1067600320,25.01825,121.55853
19分鐘,35,麟光站,1067600620,25.015473,121.561041
20分鐘,36,大我新舍,1067600040,25.013874,121.5624664
25分鐘,1,大我新舍,1067600000,25.014374,121.5622939
25分鐘,2,麟光站,1067600660,25.015917,121.560787
26分鐘,3,黎忠市場,1105700060,25.019475,121.557953
27分鐘,4,富陽街口,1105600060,25.021127,121.55616
28分鐘,5,捷運六張犁站(和平),1067400060,25.022926,121.554225
31分鐘,6,和平安和路口,1067500160,25.024531,121.550915
33分鐘,7,臥龍街,1066900060,25.024707,121.5474978
34分鐘,8,國立臺北教育大學,1067000160,25.024826,121.5448151
36分鐘,9,復興南路口,1066400460,25.025103,121.5423761
37分鐘,10,國北教大實小,1066400160,25.02532,121.54065
37分鐘,11,龍門國中(和平),1066400660,25.025527,121.5391542
40分鐘,12,大安森林公園,1066200060,25.025928,121.5363198
42分鐘,13,金華新生路口,1065000200,25.03048,121.53384
43分鐘,14,信義新生路口,1065000400,25.033205,121.5329027
45分鐘,15,仁愛新生路口,1065100000,25.037796,121.5328703
47分鐘,16,捷運忠孝新生站,1065200100,25.041989,121.5328758
48分鐘,17,光華商場,1066600200,25.045,121.53299
51分鐘,18,長安松江路口,1045600000,25.048273,121.532997
52分鐘,19,捷運松江南京站,1048600100,25.051799,121.533087
54分鐘,20,長春松江路口,1045900300,25.054536,121.5331386
進站中,21,捷運行天宮站(松江路),1048300200,25.057613,121.5331766
5分鐘,22,行天宮,1047200500,25.063292,121.533394
7分鐘,23,新生公園(林安泰),1048200400,25.06718,121.5333635
11分鐘,24,大佳國小,1047200220,25.07233,121.5363689
12分鐘,25,河濱公園大佳段,1047200720,25.072283,121.5408
17分鐘,26,大直國小,1046500220,25.079711,121.5453154
19分鐘,27,捷運大直站,1046500520,25.080216,121.5479855
20分鐘,28,植福宮,1046300000,25.081609,121.5488002
21分鐘,29,自強隧道(大直教會),1046400100,25.083737,121.5493072
22分鐘,30,自強隧道,1046400020,25.085862,121.5518959
24分鐘,31,捷運劍南路站,1046400320,25.08484,121.555253
25分鐘,32,美麗華,1144600120,25.084538,121.5581969
26分鐘,33,敬業四路,1046201940,25.081855,121.5584464
29分鐘,34,大直美堤花園二,1046600660,25.08002,121.5574829
30分鐘,35,敬業三路二,1046600900,25.081338,121.556408
44分鐘,1,臺大醫院,1005500340,25.042497,121.5185042
46分鐘,2,中正紀念堂,1004800920,25.037153,121.520771
47分鐘,3,信義杭州路口,1004800820,25.0357,121.5238361
48分鐘,4,捷運東門站,1064100120,25.034134,121.5269937
進站中,5,信義永康街口(捷運東門站),1065000320,25.033693,121.529727
進站中,6,信義新生路口,1006100020,25.03353,121.5323283
3分鐘,7,捷運大安森林公園站,1065600420,25.033496,121.5356316
4分鐘,8,信義建國路口,1065800120,25.033441,121.539045
6分鐘,9,捷運大安站(信義),1065800420,25.033323,121.5432319
7分鐘,10,信義大安路口,1068300220,25.0332,121.5456
8分鐘,11,信義敦化路口,1068100120,25.033262,121.548298
10分鐘,12,捷運信義安和站(信義),1068500320,25.033142,121.551229
12分鐘,13,信義通化街口,1067900420,25.033087,121.5539941
14分鐘,14,信義光復路口,1067900320,25.03311,121.55687
18分鐘,15,捷運台北101/世貿站(信義),1104900320,25.032802,121.564536
20分鐘,16,信義松仁路口(信義),1104700420,25.032733,121.5671167
24分鐘,17,捷運象山站,1104700720,25.032648,121.568984
27分鐘,18,國稅局宿舍,1108500020,25.03433,121.575678
29分鐘,19,松山商職(福德),1107700520,25.036219,121.5787474
30分鐘,20,松友新村,1107700620,25.036858,121.581141
31分鐘,21,信義行政中心(奉天宮),1107800120,25.037669,121.5832737
33分鐘,22,福德國小,1107900120,25.03918,121.58728
34分鐘,23,成福路口,1155500220,25.039468,121.588329
35分鐘,24,成福宮,1155500140,25.039097,121.5898
37分鐘,25,南港花園社區二,1158200100,25.040031,121.5911518
38分鐘,26,南港花園社區一,1158200040,25.041068,121.591596
39分鐘,27,南港花園社區五,1158200320,25.04004,121.5926
40分鐘,28,南港公園一,1156900100,25.043971,121.5929045
41分鐘,29,南港公園,1156900060,25.04584,121.59264
42分鐘,30,衛生福利部,1155800210,25.050778,121.596034
45分鐘,31,南港機廠,1156100320,25.051694,121.604333
47分鐘,32,捷運南港站,1156100521,25.051875,121.606373
50分鐘,33,南港高工一,1157900200,25.055781,121.607246
52分鐘,34,南港高工(重陽),1157300560,25.058039,121.605866
45分鐘,1,南港高工一,1157900240,25.056276,121.607046
47分鐘,2,捷運南港站,1156100540,25.052565,121.607816
49分鐘,3,南港機廠,1156100360,25.051778,121.602893
51分鐘,4,衛生福利部,1155800250,25.0503,121.595013
53分鐘,5,南港公園一,1156900140,25.043925,121.5927772
55分鐘,6,南港花園社區四,1156900340,25.039482,121.593565
55分鐘,7,南港花園社區三,1156900260,25.038953,121.5926327
56分鐘,8,成福宮,1155500100,25.03836,121.5904127
57分鐘,9,成福路口,1155500260,25.039558,121.5884451
58分鐘,10,福德國小,1107900160,25.038971,121.5863428
預計19:20發車,11,信義行政中心(奉天宮),1107800160,25.03789,121.58325
預計19:20發車,12,松友新村,1107700660,25.037055,121.580964
進站中,13,松山商職(福德),1107700560,25.036372,121.5787375
進站中,14,國業里,1107800360,25.03555,121.57704
進站中,15,國稅局宿舍,1108500060,25.034442,121.575497
4分鐘,16,捷運象山站,1107300660,25.033006,121.570056
6分鐘,17,信義松仁路口(信義),1104700460,25.032949,121.5666876
9分鐘,18,捷運台北101/世貿站(信義),1104900360,25.033242,121.5645984
12分鐘,19,信義光復路口,1105200260,25.0331,121.55813
15分鐘,20,信義通化街口,1067900460,25.033193,121.5546221
16分鐘,21,捷運信義安和站(信義),1068500360,25.033223,121.552849
17分鐘,22,信義敦化路口,1068500260,25.033377,121.549449
19分鐘,23,信義大安路口,1068400060,25.033383,121.5461666
20分鐘,24,捷運大安站(信義),1068400260,25.033404,121.5438266
22分鐘,25,師大附中,1065800360,25.033382,121.542275
22分鐘,26,信義建國路口,1065800160,25.033595,121.538468
24分鐘,27,捷運大安森林公園站,1065600460,25.03355,121.5359159
25分鐘,28,信義新生路口,1065600360,25.033627,121.5331327
27分鐘,29,信義永康街口,1065100260,25.033765,121.5301447
28分鐘,30,捷運東門站,1005700060,25.034232,121.526986
30分鐘,31,信義杭州路口,1004800860,25.035417,121.5246296
33分鐘,32,中正紀念堂,1004800960,25.03739,121.52056
38分鐘,33,捷運台大醫院站,1004801100,25.041927,121.5163535
40分鐘,34,臺北車站(青島),1004100820,25.044844,121.517704
10分鐘,1,臺大醫院,1005500340,25.042497,121.5185042
13分鐘,2,中正紀念堂,1004800920,25.037153,121.520771
14分鐘,3,信義杭州路口,1004800820,25.0357,121.5238361
進站中,4,捷運東門站,1064100120,25.034134,121.5269937
進站中,5,信義永康街口(捷運東門站),1065000320,25.033693,121.529727
3分鐘,6,信義新生路口,1006100020,25.03353,121.5323283
5分鐘,7,捷運大安森林公園站,1065600420,25.033496,121.5356316
6分鐘,8,信義建國路口,1065800120,25.033441,121.539045
8分鐘,9,捷運大安站(信義),1065800420,25.033323,121.5432319
9分鐘,10,信義大安路口,1068300220,25.0332,121.5456
10分鐘,11,信義敦化路口,1068100120,25.033262,121.548298
12分鐘,12,捷運信義安和站(信義),1068500320,25.033142,121.551229
14分鐘,13,信義通化街口,1067900420,25.033087,121.5539941
15分鐘,14,信義光復路口,1067900320,25.03311,121.55687
進站中,15,捷運台北101/世貿站(信義),1104900320,25.032802,121.564536
進站中,16,信義松仁路口(信義),1104700420,25.032733,121.5671167
5分鐘,17,捷運象山站,1104700720,25.032648,121.568984
6分鐘,18,國稅局宿舍,1108500020,25.03433,121.575678
8分鐘,19,松山商職(福德),1107700520,25.036219,121.5787474
9分鐘,20,松友新村,1107700620,25.036858,121.581141
10分鐘,21,信義行政中心(奉天宮),1107800120,25.037669,121.5832737
13分鐘,22,福德國小,1107900120,25.03918,121.58728
14分鐘,23,成福路口,1155500220,25.039468,121.588329
15分鐘,24,成福宮,1155500100,25.03836,121.5904127
16分鐘,25,南港花園社區二,1158200100,25.040031,121.5911518
尚未發車,1,南港花園社區二,1158200100,25.040031,121.5911518
尚未發車,2,南港花園社區一,1158200040,25.041068,121.591596
尚未發車,3,南港花園社區五,1158200320,25.04004,121.5926
尚未發車,4,南港花園社區四,1156900340,25.039482,121.593565
尚未發車,5,南港花園社區三,1156900260,25.038953,121.5926327
尚未發車,6,成福宮,1155500140,25.039097,121.5898
尚未發車,7,成福路口,1155500260,25.039558,121.5884451
尚未發車,8,福德國小,1107900160,25.038971,121.5863428
尚未發車,9,信義行政中心(奉天宮),1107800160,25.03789,121.58325
尚未發車,10,松友新村,1107700660,25.037055,121.580964
尚未發車,11,松山商職(福德),1107700560,25.036372,121.5787375
尚未發車,12,國業里,1107800360,25.03555,121.57704
尚未發車,13,國稅局宿舍,1108500060,25.034442,121.575497
尚未發車,14,捷運象山站,1107300660,25.033006,121.570056
進站中,15,信義松仁路口(信義),1104700460,25.032949,121.5666876
進站中,16,捷運台北101/世貿站(信義),1104900360,25.033242,121.5645984
6分鐘,17,信義光復路口,1105200260,25.0331,121.55813
8分鐘,18,信義通化街口,1067900460,25.033193,121.5546221
9分鐘,19,捷運信義安和站(信義),1068500360,25.033223,121.552849
11分鐘,20,信義敦化路口,1068500260,25.033377,121.549449
13分鐘,21,信義大安路口,1068400060,25.033383,121.5461666
13分鐘,22,捷運大安站(信義),1068400260,25.033404,121.5438266
15分鐘,23,師大附中,1065800360,25.033382,121.542275
16分鐘,24,信義建國路口,1065800160,25.033595,121.538468
18分鐘,25,捷運大安森林公園站,1065600460,25.03355,121.5359159
19分鐘,26,信義新生路口,1065600360,25.033627,121.5331327
20分鐘,27,信義永康街口,1065100260,25.033765,121.5301447
21分鐘,28,捷運東門站,1005700060,25.034232,121.526986
23分鐘,29,信義杭州路口,1004800860,25.035417,121.5246296
進站中,30,中正紀念堂,1004800960,25.03739,121.52056
5分鐘,31,捷運台大醫院站,1004801100,25.041927,121.5163535
6分鐘,32,臺北車站(青島),1004100820,25.044844,121.517704
末班已過,1,冷水坑服務站,1119201540,25.165839,121.563844
末班已過,2,松園,1119201640,25.15836,121.565184
末班已過,3,菁山遊憩區一,1119203560,25.15165,121.56106
末班已過,4,菁山遊憩區,1119203160,25.151715,121.558374
末班已過,5,中山樓,1129100300,25.151372,121.549636
末班已過,6,陽明山,1129101760,25.152497,121.5474217
末班已過,7,陽明山總站,1129102120,25.15148,121.54603
末班已過,1,陽明山總站,1129102120,25.15148,121.54603
末班已過,2,陽明山國家公園管理處,1129201500,25.15532,121.54608
末班已過,3,童軍站,1129202000,25.158318,121.5468387
末班已過,4,磺仔外,1129200500,25.16067,121.54528
末班已過,5,氣象台,1129201100,25.16172,121.54429
末班已過,6,陽明書屋,1129202100,25.163105,121.5448478
末班已過,7,竹子湖派出所,1129200600,25.16727,121.5404
末班已過,8,頂湖山,1129201700,25.173294,121.540701
末班已過,9,游園站,1129201800,25.17508,121.541178
末班已過,10,百拉卡公路入口,1129200060,25.179701,121.54296
末班已過,11,鞍部,1129202400,25.18278,121.52994
末班已過,12,二子坪,2524300020,25.18604,121.52552
末班已過,13,小觀音棧,1129200121,25.179995,121.5465214
末班已過,14,小油坑服務站,1129200100,25.176902,121.547521
末班已過,15,中湖,1129200240,25.177801,121.5566726
末班已過,16,夢幻湖,1119203640,25.17127,121.56002
末班已過,17,夢幻湖停車場,1119203740,25.169108,121.5624343
末班已過,18,冷水坑,1119201420,25.167528,121.5631306
末班已過,19,擎天崗,1119204200,25.16716,121.57388
末班已過,20,冷水坑,1119201360,25.167721,121.5631788
末班已過,1,百拉卡公路入口,1129200020,25.179585,121.5428901
末班已過,2,頂湖山,1129201740,25.1732,121.54048
末班已過,3,竹子湖派出所,1129200640,25.167226,121.5402309
末班已過,4,水雲澗,1129200340,25.1644,121.54405
末班已過,5,陽明書屋,1129202140,25.16297,121.54468
末班已過,6,氣象台,1129201140,25.16177,121.54402
末班已過,7,磺仔外,1129200530,25.160523,121.5452729
末班已過,8,童軍站,1129202040,25.158277,121.5467266
末班已過,9,陽明山國家公園管理處,1129201520,25.1552,121.54612
末班已過,10,陽明山總站,1129102120,25.15148,121.54603
末班已過,1,陽明山總站,1129102120,25.15148,121.54603
末班已過,2,陽明山國家公園管理處,1129201500,25.15532,121.54608
末班已過,3,童軍站,1129202000,25.158318,121.5468387
末班已過,4,磺仔外,1129200500,25.16067,121.54528
末班已過,5,氣象台,1129201100,25.16172,121.54429
末班已過,6,陽明書屋,1129202100,25.163105,121.5448478
末班已過,7,竹子湖派出所,1129200600,25.16727,121.5404
末班已過,8,頂湖山,1129201700,25.173294,121.540701
末班已過,9,游園站,1129201800,25.17508,121.541178
末班已過,10,百拉卡公路入口,1129200060,25.179701,121.54296
末班已過,11,鞍部,1129202400,25.18278,121.52994
末班已過,12,二子坪,2524300020,25.18604,121.52552
今日未營運,1,陽明山國家公園管理處,1129201540,25.153957,121.5446981
今日未營運,2,陽明山,1129101720,25.152339,121.5473281
今日未營運,3,中山樓,1129100320,25.151251,121.5496538
今日未營運,4,教師中心,1119100740,25.149554,121.549422
今日未營運,5,聯勤陽明山招待所,1129102640,25.14819,121.54924
今日未營運,6,福壽橋,1119101140,25.14569,121.54954
今日未營運,7,格致大亨路口,1119100840,25.14275,121.54926
今日未營運,8,磺溪底,1119101340,25.140861,121.5496272
今日未營運,9,文化大學,1119100340,25.13809,121.54648
今日未營運,10,山仔后派出所,1119100240,25.134647,121.5457928
今日未營運,11,格致國中,1119100540,25.130894,121.5469046
今日未營運,12,下竹林,1119100040,25.12941,121.54752
今日未營運,13,新安,1114903640,25.124937,121.550105
今日未營運,14,白雲山莊,1114901840,25.122511,121.5516655
今日未營運,15,明德新村,1114902640,25.119971,121.5529234
今日未營運,16,陽明山國小,1114903440,25.11796,121.55207
今日未營運,17,福音,1114904640,25.114012,121.5503103
今日未營運,18,陽明教養院,1114903540,25.110419,121.5483617
今日未營運,19,永福(林語堂故居),1114901540,25.109527,121.5471541
今日未營運,20,永嶺,1114901640,25.106849,121.545213
今日未營運,21,拔子埔,1114902540,25.105051,121.5436481
今日未營運,22,嶺頭,1114905140,25.103185,121.5415363
今日未營運,23,華興中學,1114903300,25.104112,121.5383592
